%time,field.x,field.y,field.z
1487138104758545175,-0.763260239033,-1.33341669912,0.0836536602542
1487138104772915820,-0.763260705221,-1.33342241628,0.0836359698229
1487138104781488350,-0.763260962005,-1.33342211808,0.0836368314235
1487138104783928846,-0.76326097082,-1.33342229541,0.0836366125777
1487138104785736260,-0.763260106702,-1.33342281776,0.0836345536372
1487138104788658131,-0.763258996263,-1.33342334074,0.0836319813229
1487138104793628290,-0.76325733362,-1.33342413958,0.0836278826473
1487138104795398788,-0.763248735721,-1.33340771063,0.0836453366517
1487138104796115995,-0.763246528062,-1.3334085761,0.0836395981237
1487138104796716411,-0.763246004579,-1.33340890854,0.0836454819561
1487138104799109866,-0.763243841804,-1.33340971964,0.0836392714941
1487138104802468569,-0.763241649998,-1.33341052464,0.0836323663457
1487138104805649981,-0.763239062002,-1.33341131539,0.0836238913357
1487138104806699313,-0.763242840659,-1.33341310256,0.0836335830295
1487138104810407016,-0.763239206812,-1.33341400117,0.0836215708255
1487138104814102052,-0.763235664188,-1.33341487282,0.0836098190448
1487138104815590675,-0.763241880539,-1.33341813491,0.0836156068782
1487138104853058288,-0.763237950181,-1.33341901677,0.0836025034823
1487138104853150163,-0.763232235662,-1.33342015159,0.0835834108198
1487138104853229746,-0.763233245073,-1.33341509094,0.0835974702044
1487138104853279996,-0.763229104563,-1.33341541431,0.0835841515836
1487138104853340204,-0.763223749735,-1.33341579689,0.08356663414
1487138104853402662,-0.763218606349,-1.33341602714,0.0835495438355
1487138104853471995,-0.763224367618,-1.33341424702,0.0835671315157
1487138104853528454,-0.763218465883,-1.33341424074,0.0835473493498
1487138104854100245,-0.763210446879,-1.33341430419,0.0835199986582
1487138104854171161,-0.763205974872,-1.33341437663,0.0835047025221
1487138104854250911,-0.763211916312,-1.33341001464,0.0835365368027
1487138104854319536,-0.763205167001,-1.33340991606,0.0835141818179
1487138104893270771,-0.763198222605,-1.33341014772,0.0834911902671
1487138104893363854,-0.763208553353,-1.33341074298,0.0835228476945
1487138104893470521,-0.763200034595,-1.33341116701,0.0834950212516
1487138104893542896,-0.763192899205,-1.33341153219,0.0834719856607
1487138104894160270,-0.763206763756,-1.33341326194,0.0835027456811
1487138104894228311,-0.76319969742,-1.33341346121,0.0834797977386
1487138104894288103,-0.763189356956,-1.3334136516,0.0834463562101
1487138104894555978,-0.763183256586,-1.33341359399,0.0834267485629
1487138104895806934,-0.763195819092,-1.33341236647,0.083474800305
1487138104895897434,-0.763185332464,-1.33341195151,0.0834417641868
1487138104895954767,-0.76317300904,-1.33341148841,0.0834027666065
1487138104896050517,-0.76316328911,-1.33341118249,0.0833720038377
1487138104896120892,-0.763180345459,-1.33341122325,0.0834326540553
1487138104896231808,-0.763168995429,-1.33341095279,0.0833974760849
1487138104934221045,-0.763185717061,-1.33341236547,0.083444669609
1487138104934285170,-0.763178739326,-1.33341233776,0.0834229859465
1487138104934395128,-0.763169424226,-1.3334124109,0.0833935445912
1487138104934494170,-0.763160047809,-1.3334123638,0.0833633822463
1487138104934549920,-0.763150664443,-1.33341217352,0.0833325320527
1487138104934610711,-0.763167385239,-1.33340718498,0.0834063082609
1487138104934731503,-0.763157082394,-1.33340661319,0.0833724473155
1487138104935113127,-0.763173273256,-1.33340587454,0.0834257761118
1487138104935167544,-0.763164800941,-1.33340545578,0.0833968966831
1487138104935242669,-0.763156089499,-1.33340524515,0.0833663137014
1487138104935305502,-0.763147398015,-1.33340511572,0.0833351264105
1487138104935358627,-0.763165523702,-1.33340556247,0.083396416263
1487138104935422793,-0.763152078292,-1.33340527915,0.0833468628734
1487138104935472793,-0.763142604781,-1.33340506579,0.0833088675472
1487138104939954662,-0.763159631075,-1.33340315881,0.0833771070124
1487138104973349780,-0.763151243587,-1.33340277425,0.0833418580901
1487138104973410155,-0.763144417138,-1.33340256306,0.0833121866121
1487138104973485072,-0.763136566562,-1.33340233206,0.0832773877596
1487138104973537071,-0.763158718206,-1.33340447442,0.083346062203
1487138104974092737,-0.763148111448,-1.33340419127,0.0832963849307
1487138104974411320,-0.763142523381,-1.33340425143,0.0832689490207
1487138104974466445,-0.763159823219,-1.33340394258,0.0833374457342
1487138104974519570,-0.763153134496,-1.33340404028,0.0833036132244
1487138104974583737,-0.76314665953,-1.33340434074,0.0832698174277
1487138104974643487,-0.763161843478,-1.33340267571,0.0833387577265
1487138104974796945,-0.763155212269,-1.33340292209,0.0833032368746
1487138104974870403,-0.763148747777,-1.33340321697,0.0832674665803
1487138105013103889,-0.763161155218,-1.33340270031,0.0833316919666
1487138105013169972,-0.763153171232,-1.3334028996,0.0832868034395
1487138105013246264,-0.763148638354,-1.3334029873,0.0832611368683
1487138105013307764,-0.763139788265,-1.33340299237,0.0832115312087
1487138105013441014,-0.763155255868,-1.33340109013,0.0832828140227
1487138105013518264,-0.763149238486,-1.33340068171,0.0832495167506
1487138105013600597,-0.763140480045,-1.33339999706,0.0832006201199
1487138105013805930,-0.763157613499,-1.33340069246,0.0832680956796
1487138105013900305,-0.763147387708,-1.33339961451,0.0832099604572
1487138105013959555,-0.763143671484,-1.33339927152,0.0831890009686
1487138105014011971,-0.763155978056,-1.33339944141,0.0832583558387
1487138105016009302,-0.763149067639,-1.33339874526,0.0832197200521
1487138105016070093,-0.763142305321,-1.333398296,0.083181575741
1487138105016122593,-0.76313523018,-1.33339802629,0.0831409372113
1487138105053649039,-0.763149432074,-1.33339758814,0.0832189617522
1487138105053740414,-0.763142469525,-1.33339735933,0.0831779132377
1487138105053800164,-0.763133508095,-1.33339731055,0.0831231016755
1487138105053877330,-0.763148270969,-1.33339738448,0.0832009128315
1487138105054021997,-0.763139000297,-1.33339747704,0.0831421895841
1487138105054759704,-0.763137308244,-1.3333975741,0.0831312011755
1487138105054862620,-0.763127900202,-1.33339816272,0.0830698816576
1487138105054924870,-0.763144075331,-1.33339720128,0.0831556786517
1487138105054990037,-0.763138350685,-1.333397656,0.0831172616499
1487138105055057787,-0.763130854124,-1.33339855298,0.0830659171861
1487138105055128745,-0.763123479341,-1.33339964363,0.0830151999044
1487138105055190203,-0.763146157613,-1.33340622859,0.0831005810149
1487138105055246995,-0.76314179719,-1.3334069972,0.0830698152208
1487138105055340495,-0.763135034245,-1.33340830207,0.0830216699478
1487138105093140815,-0.763149283908,-1.33340611458,0.0831118702555
1487138105093206398,-0.76313733248,-1.3334082359,0.0830257270673
1487138105093258606,-0.763137165603,-1.33340826216,0.0830244979716
1487138105093394148,-0.763130474541,-1.33340931052,0.0829752296213
1487138105093453148,-0.763145397904,-1.33340766771,0.0830687217141
1487138105093519398,-0.763138651964,-1.33340854101,0.0830197402015
1487138105093571856,-0.763130599385,-1.33340943858,0.082961265578
1487138105093626064,-0.763144243255,-1.33340674511,0.0830537641352
1487138105093696772,-0.763137813537,-1.33340706291,0.0830076518291
1487138105093764064,-0.763131424257,-1.33340734898,0.0829619498813
1487138105093839480,-0.763125495327,-1.33340762147,0.0829202274344
1487138105094109605,-0.763142866758,-1.3334094001,0.0830181238458
1487138105094170980,-0.763134950092,-1.33340988534,0.0829634631591
1487138105094331438,-0.763127947997,-1.33341064694,0.0829169708941
1487138105133414048,-0.763142262576,-1.33340844181,0.0830121807112
1487138105133479048,-0.763128971368,-1.33341010086,0.0829275455894
1487138105133531673,-0.76312317661,-1.33341068525,0.0828919424307
1487138105133599965,-0.763114950169,-1.3334113703,0.0828418784108
1487138105133696214,-0.763105872815,-1.33341187846,0.0827868745009
1487138105134060631,-0.763096429506,-1.33341213025,0.0827301744084
1487138105134120589,-0.763117331421,-1.33341014965,0.0828667861699
1487138105134193255,-0.763105350892,-1.3334100866,0.0827966329789
1487138105134258964,-0.763098878,-1.33341000223,0.0827592333162
1487138105134428755,-0.763120299387,-1.33340947902,0.0828827071967
1487138105135300129,-0.763108917545,-1.33340917582,0.082817782014
1487138105135405837,-0.763100797983,-1.33340900976,0.0827715282426
1487138105137706042,-0.763121705773,-1.33340778294,0.0828854000187
1487138105139035748,-0.763103339301,-1.33340725592,0.0827808632725
1487138105179020899,-0.763099551943,-1.33340712984,0.0827595955288
1487138105179099940,-0.763091493875,-1.33340684337,0.0827145405656
1487138105179160732,-0.763111756165,-1.33340722846,0.0828396831649
1487138105179215190,-0.763100185606,-1.33340674952,0.0827761861851
1487138105179770398,-0.763118189399,-1.33340555211,0.082885910538
1487138105179880356,-0.763099424061,-1.33340498363,0.0827851971317
1487138105179926272,-0.763093741512,-1.33340516521,0.0827554847961
1487138105180340897,-0.763083019276,-1.33340566306,0.082699638961
1487138105180435022,-0.76310396529,-1.33340470112,0.0828244005434
1487138105180494938,-0.763091761019,-1.33340545639,0.082762106174
1487138105180542272,-0.763080070894,-1.33340648859,0.082702781076
1487138105181115562,-0.76310003463,-1.33340422626,0.0828262436689
1487138105181460770,-0.763088424541,-1.33340518659,0.0827682571107
1487138105218307300,-0.76307867972,-1.33340599052,0.0827188685994
1487138105218383967,-0.763069183144,-1.3334066655,0.0826699993868
1487138105218461550,-0.763056257856,-1.33340744933,0.0826027122657
1487138105218525966,-0.763045803036,-1.33340791522,0.0825476446385
1487138105218581175,-0.763035747266,-1.33340825196,0.0824942898944
1487138105218735258,-0.763023631207,-1.33340863865,0.0824300012373
1487138105218804008,-0.763060429513,-1.33340977915,0.0826129646252
1487138105218975466,-0.763048024488,-1.3334102978,0.0825478165525
1487138105219884631,-0.763074087376,-1.33340835899,0.0827043054874
1487138105220100131,-0.763064567447,-1.33340886048,0.0826556416018
1487138105220275297,-0.763053717154,-1.33340956926,0.0826005237714
1487138105220334631,-0.763042222628,-1.33341025404,0.0825430764244
1487138105220691713,-0.763030574679,-1.33341080373,0.0824862632144
1487138105258107034,-0.763059711786,-1.33340706834,0.0826575150603
1487138105258201826,-0.763047572043,-1.33340733932,0.0826010866813
1487138105258278159,-0.763074072517,-1.33340615103,0.0827405552103
1487138105258344284,-0.76306258417,-1.33340633881,0.0826890408021
1487138105258400784,-0.76305033375,-1.33340665579,0.0826346807758
1487138105258487659,-0.763038339832,-1.33340707226,0.0825817496107
1487138105258617700,-0.763065681226,-1.33340639263,0.0827249318577
1487138105258796075,-0.763054351963,-1.33340675571,0.0826754768214
1487138105258861533,-0.763042751456,-1.33340709956,0.0826241576169
1487138105258918991,-0.763069728725,-1.33340526021,0.0827564509763
1487138105258982408,-0.763056989894,-1.33340532048,0.0827001451212
1487138105259040074,-0.763045744385,-1.33340531358,0.0826500463527
1487138105259191158,-0.763072000749,-1.33340519127,0.082774447086
1487138105259312907,-0.763056847409,-1.33340509151,0.0827073179003
1487138105298064435,-0.763079490557,-1.33340361491,0.0828218041324
1487138105298161268,-0.763050500907,-1.33340380735,0.082692216652
1487138105298220059,-0.763048410838,-1.33340390262,0.0826823947896
1487138105298275518,-0.763043066032,-1.33340415858,0.0826572234296
1487138105298339518,-0.763037769721,-1.33340443383,0.0826322642074
1487138105298448809,-0.763062854817,-1.33340256701,0.0827626026749
1487138105298536726,-0.763052777398,-1.33340300227,0.0827157330987
1487138105298605850,-0.763045592856,-1.33340333539,0.0826821503588
1487138105298676642,-0.763032154937,-1.33340386043,0.0826187735397
1487138105298738392,-0.763058182625,-1.33340074889,0.0827538743845
1487138105298789850,-0.763046646578,-1.3334009458,0.0826985555095
1487138105298917558,-0.763035761611,-1.33340131112,0.0826446373721
1487138105300488764,-0.763027612255,-1.33340181693,0.0826029990767
1487138105300564973,-0.763016612727,-1.333402836,0.0825457481819
1487138105300615848,-0.763059000728,-1.33340738628,0.0826829334689
1487138105307514754,-0.763050225687,-1.33340874795,0.0826343223853
1487138105307638421,-0.76308478292,-1.33341218828,0.0827487298909
1487138105344780450,-0.763076704374,-1.33341392454,0.0827011058623
1487138105344846950,-0.763064193179,-1.33341689332,0.0826262846808
1487138105344904283,-0.763055194071,-1.33341873946,0.0825718492379
1487138105344967742,-0.763081170438,-1.33341826818,0.0827135274774
1487138105345525699,-0.763070563236,-1.33342027968,0.0826493201562
1487138105345928865,-0.763090694175,-1.33341521683,0.08277614913
1487138105346055032,-0.763084509112,-1.33341624016,0.0827396329973
1487138105346111823,-0.763078331594,-1.3334173324,0.0827035995603
1487138105346165615,-0.763068711301,-1.33341894552,0.0826486258238
1487138105346219948,-0.763090093815,-1.33341746469,0.0827725886265
1487138105346306198,-0.763081544035,-1.33341861751,0.082725412517
1487138105346805739,-0.763072527818,-1.33341968109,0.0826762719576
1487138105384749892,-0.763093273554,-1.33341696344,0.0827958093812
1487138105384848267,-0.76308538987,-1.33341754691,0.0827538231383
1487138105384940017,-0.76307679294,-1.333418064,0.0827079597807
1487138105385031975,-0.763067968612,-1.33341844543,0.0826605846801
1487138105385098892,-0.763086323068,-1.33341329882,0.0827878022237
1487138105385217183,-0.763077940286,-1.33341345016,0.0827428161674
1487138105385293850,-0.76306968831,-1.33341379974,0.082696584449
1487138105385379183,-0.763092226679,-1.33341301874,0.0828133145748
1487138105385440850,-0.763080672634,-1.33341370629,0.0827451559112
1487138105385504516,-0.763077071009,-1.33341414781,0.0827226607362
1487138105385567058,-0.763070547415,-1.33341505793,0.0826816692056
1487138105385624141,-0.763093063071,-1.33341281488,0.0828021977865
1487138105385696599,-0.763086136638,-1.3334138314,0.082758485788
1487138105386482848,-0.763078738593,-1.33341500275,0.0827122639716
1487138105423265170,-0.763097924239,-1.3334109934,0.0828261073467
1487138105423325545,-0.763091132376,-1.33341187765,0.0827849712305
1487138105423378586,-0.763082635935,-1.33341301527,0.0827341177114
1487138105423439086,-0.763076691983,-1.33341381183,0.0826989729817
1487138105423615836,-0.763069360219,-1.333414885,0.0826557282721
1487138105423675503,-0.763090607212,-1.33341088586,0.0827858866019
1487138105423735836,-0.763080884699,-1.33341245248,0.0827287100306
1487138105423793002,-0.763097659729,-1.33340940568,0.0828414534427
1487138105423866169,-0.763092319721,-1.33341046937,0.0828099945516
1487138105423917294,-0.76308564956,-1.33341205791,0.082770184355
1487138105423978752,-0.763079372984,-1.33341360015,0.0827329346075
1487138105424028127,-0.763072433758,-1.33341529677,0.0826920949335
1487138105424179710,-0.763089494452,-1.33340953396,0.0828198261409
1487138105425292084,-0.763078913664,-1.33341192609,0.0827594053112
1487138105427408997,-0.763074608265,-1.33341284867,0.0827348556745
1487138105462939362,-0.763096193916,-1.33341233009,0.082847631885
1487138105462998904,-0.763090059234,-1.33341354796,0.0828128557141
1487138105463055154,-0.763083089514,-1.33341486139,0.0827734265031
1487138105463114779,-0.763101284711,-1.33341175203,0.0828789241236
1487138105463177737,-0.76309511768,-1.33341263448,0.0828443461533
1487138105463241987,-0.763087954965,-1.33341356119,0.0828036021167
1487138105463310987,-0.763104835999,-1.33341052416,0.082904162085
1487138105463371112,-0.763098297928,-1.33341110348,0.0828674895724
1487138105463745736,-0.763089949993,-1.33341185498,0.0828207736959
1487138105463801111,-0.763085828443,-1.33341218755,0.0827977301215
1487138105463855861,-0.763101882327,-1.33340865068,0.0829018169536
1487138105463952861,-0.763094713493,-1.3334090979,0.082862253078
1487138105503452095,-0.763085980947,-1.33340981888,0.0828138383677
1487138105503539762,-0.763079823715,-1.33341035205,0.0827802680324
1487138105503627678,-0.76309965399,-1.33340738719,0.0828881339066
1487138105503692512,-0.763092569377,-1.33340786246,0.0828508716445
1487138105503748720,-0.763085611015,-1.33340831202,0.0828153547645
1487138105503828095,-0.763105722482,-1.333406678,0.0829144629791
1487138105503926636,-0.763098768104,-1.3334068421,0.0828800428062
1487138105504051094,-0.76309128647,-1.33340686549,0.0828436978645
1487138105504109136,-0.763108601206,-1.33340510752,0.0829394904319
1487138105504420677,-0.76310129483,-1.33340469781,0.08290544285
1487138105504586635,-0.763088954023,-1.33340369991,0.0828483646005
1487138105504696010,-0.763085245508,-1.33340326294,0.0828314243631
1487138105504768052,-0.763101667856,-1.33339965214,0.0829309695379
1487138105504822968,-0.76309097571,-1.33339807541,0.0828834465328
1487138105543478162,-0.763085649171,-1.33339735741,0.0828603563868
1487138105543597204,-0.763105883326,-1.33339731843,0.082951557572
1487138105543675495,-0.763094958482,-1.33339573329,0.082905487533
1487138105543742620,-0.763088936139,-1.33339498205,0.0828809891796
1487138105543862328,-0.763080531975,-1.33339403507,0.0828472672579
1487138105543926203,-0.763070956869,-1.33339312376,0.0828087121276
1487138105543982703,-0.763091453273,-1.33339134043,0.0829162623679
1487138105544151453,-0.763079533703,-1.33339018097,0.082868455851
1487138105544209661,-0.763074354974,-1.3333897506,0.082847374993
1487138105544258620,-0.763065682226,-1.33338902026,0.0828120505207
1487138105544450661,-0.763057483859,-1.33338834505,0.0827784827088
1487138105544501328,-0.763082649579,-1.33339050816,0.0828916123262
1487138105544550744,-0.763073148995,-1.33338965919,0.0828531083625
1487138105545914200,-0.76306410888,-1.33338884264,0.0828167335403
1487138105546092200,-0.763086535749,-1.33338882803,0.0829251917791
1487138105582997855,-0.763076487008,-1.33338765836,0.082886364215
1487138105583109813,-0.763069931367,-1.33338693882,0.0828614583943
1487138105583171438,-0.763062036549,-1.33338605629,0.0828316038478
1487138105583232188,-0.76308256122,-1.3333824521,0.0829397078131
1487138105583305355,-0.763074414732,-1.33338125898,0.0829099189409
1487138105583382980,-0.763062810936,-1.33337963624,0.0828676903834
1487138105583439396,-0.763083799125,-1.33337970398,0.0829658547804
1487138105583493438,-0.763069696852,-1.33337775194,0.0829164741349
1487138105583558229,-0.7630885872,-1.33337996412,0.0830026936875
1487138105583636896,-0.763081463214,-1.33337912559,0.0829777447379
1487138105583998770,-0.763069538782,-1.3333779924,0.0829349693568
1487138105623254547,-0.763091446027,-1.33338052683,0.0830174858985
1487138106158009355,-0.763083948652,-1.33337984152,0.0829901145216
1487138106160600977,-0.763076631112,-1.33337913879,0.0829627661747
1487138106163162681,-0.76307117975,-1.33337853735,0.0829422851057
1487138106165692761,-0.763065615116,-1.33337787428,0.0829212800104
1487138106167457383,-0.763091303784,-1.33338103765,0.0829950021264
1487138106171774294,-0.763082066911,-1.33337982022,0.0829593261465
1487138106174748914,-0.763077171992,-1.33337929053,0.082939903346
1487138106176231579,-0.763104368198,-1.33338304723,0.0830088349404
1487138106180471239,-0.76309342328,-1.33338204242,0.0829636817275
1487138106183408152,-0.763087353691,-1.33338179629,0.0829385180677
1487138106189832143,-0.763103235169,-1.3333830459,0.0830178505624
1487138106193019763,-0.763090019394,-1.33338285522,0.0829639000654
1487138106196528091,-0.763081583413,-1.33338331008,0.0829303863547
1487138106198689421,-0.763097229829,-1.33338362048,0.0830124254293
1487138106203498831,-0.76308565609,-1.33338438934,0.0829681780056
1487138106205641203,-0.763083252474,-1.33338462877,0.0829590595663
1487138106207257992,-0.763107885132,-1.33338608959,0.0830272737672
1487138106243136940,-0.763101769357,-1.33338669581,0.0830038339491
1487138106243216899,-0.763093848269,-1.33338748474,0.0829738486291
1487138106243288398,-0.763087261334,-1.33338798435,0.0829494663208
1487138106243347773,-0.763079699802,-1.33338841527,0.0829215858098
1487138106243417273,-0.763071578858,-1.3333886996,0.0828912886191
1487138106243489231,-0.763092673702,-1.33338734258,0.0829853860324
1487138106243555065,-0.763083575559,-1.33338734487,0.082951116598
1487138106243634065,-0.763108288121,-1.33338996062,0.08301805605
1487138106243723273,-0.763099333668,-1.33338984379,0.082981542882
1487138106243881231,-0.763114386427,-1.33338988993,0.0830524256537
1487138106243962397,-0.763107952611,-1.33338975647,0.0830251620741
1487138106244179314,-0.763103244626,-1.33338978506,0.0830047522609
1487138106283266299,-0.7631220312,-1.33339204281,0.0830629323877
1487138106283350049,-0.763110022544,-1.33339227147,0.0830099142322
1487138106283432674,-0.763105025213,-1.33339243335,0.0829885931325
1487138106283552340,-0.763098516545,-1.33339266538,0.0829613255914
1487138106283619590,-0.763114329918,-1.33339251006,0.0830360542657
1487138106283684548,-0.763105814265,-1.33339276729,0.0830017008548
1487138106283744048,-0.763099652744,-1.3333930104,0.082978001094
1487138106283840881,-0.763091907538,-1.33339327167,0.0829494107384
1487138106284140839,-0.763116058857,-1.33339567916,0.0830178668935
1487138106284199839,-0.763110184558,-1.33339576551,0.0829967754044
1487138106284250214,-0.763102126202,-1.33339590653,0.0829679718377
1487138106284299756,-0.763115875371,-1.33339555861,0.0830412116736
1487138106284376464,-0.763108288804,-1.33339550723,0.0830148504638
1487138106323107699,-0.763126507536,-1.33339524187,0.083071408797
1487138107569868226,-0.763094923572,-1.33339490761,0.0829592847017
1487138107575098719,-0.763118031447,-1.3333930686,0.0830283554101
1487138107579954212,-0.763084732378,-1.3333937079,0.0829563380221
1487138107584068956,-0.763078577271,-1.3333941788,0.0829431627362
1487138107587315409,-0.763066818672,-1.33339491898,0.0829166366225
1487138107589841406,-0.763058950291,-1.33339491923,0.0828976131661
1487138107593743192,-0.763091429833,-1.33339479653,0.082978776829
1487138107595805439,-0.763080721637,-1.33339417785,0.0829533543397
1487138107598178519,-0.763106979896,-1.33339354021,0.0830255336701
1487138107601208848,-0.763084864648,-1.33339144977,0.0829777294607
1487138107604012427,-0.763077743006,-1.33339143357,0.0829643444154
1487138107606007466,-0.763063890237,-1.33339181059,0.0829382021043
1487138107607307089,-0.76309472362,-1.33339279057,0.0830141407183
1487138107609844502,-0.763079763616,-1.33339402051,0.082984047403
1487138107611874374,-0.76307470437,-1.33339477289,0.0829719907952
1487138107614619370,-0.763066941858,-1.33339600595,0.0829523849684
1487138107616479617,-0.763095863482,-1.33339378213,0.0830282980118
1487138107653110522,-0.763068415279,-1.33339810122,0.0829552145874
1487138107653417564,-0.763056192136,-1.3333991557,0.0829297583291
1487138107653486939,-0.763088661836,-1.33339565576,0.0830121099122
1487138107653546522,-0.763071815079,-1.33339704978,0.0829798634791
1487138107653594605,-0.763060065543,-1.33339852453,0.0829554402394
1487138107653641522,-0.763093321353,-1.3333968898,0.0830325378773
1487138107653742647,-0.763084248734,-1.33339828262,0.0830118198005
1487138107653817105,-0.763074923303,-1.33340009531,0.0829877904193
1487138107693319298,-0.763063021808,-1.33340256652,0.0829538325547
1487138107693468381,-0.763097165863,-1.33340148267,0.0830314734307
1487138107693534172,-0.76308937477,-1.33340288159,0.083008137487
1487138107693596755,-0.763077581058,-1.3334048156,0.0829722212384
1487138107693673380,-0.763060108955,-1.33340725529,0.0829223316318
1487138107693736964,-0.763095240109,-1.33340359337,0.083011295748
1487138107693807130,-0.763087368021,-1.33340477536,0.0829885340736
1487138107693920297,-0.763078805823,-1.3334063866,0.0829613347369
1487138107694364129,-0.763109518196,-1.3334027356,0.0830407830616
1487138107694637254,-0.763099787044,-1.33340490102,0.0830037738942
1487138107732994948,-0.763126522037,-1.33340235886,0.0830725874323
1487138107733057282,-0.763115160924,-1.33340552121,0.0830139138207
1487138107736409985,-0.763113828052,-1.33340562814,0.083006443916
1487138107736520193,-0.76313993459,-1.33340355203,0.0830744146845
1487138107736598360,-0.763136006666,-1.3334036844,0.0830497982984
1487138107736653943,-0.763133742254,-1.33340362818,0.0830348427489
1487138107736758193,-0.763154600491,-1.3334016766,0.0830962696341
1487138107736805734,-0.763150345534,-1.33340117047,0.0830640139202
1487138107736857026,-0.763147941074,-1.33340119152,0.0830447522103
1487138107736929651,-0.76316632941,-1.33339780482,0.0831040570729
1487138107736980609,-0.763163831645,-1.33339811454,0.0830832505753
1487138107737129817,-0.763161288978,-1.33339900655,0.0830655248469
1487138107773081515,-0.763157700283,-1.33340055493,0.0830459245735
1487138107773138807,-0.763171094837,-1.33339866254,0.0831104087991
1487138107773188015,-0.763165241282,-1.33340162512,0.0830850990783
1487138107773275057,-0.763161735478,-1.33340365544,0.0830727113821
1487138107773334348,-0.763155260382,-1.33340728685,0.0830509144771
1487138107773393723,-0.763171010461,-1.3334026975,0.0831131451631
1487138107773583765,-0.763166719513,-1.33340481479,0.0830987755658
1487138107773645848,-0.763161982093,-1.33340697736,0.0830815836393
1487138107773708889,-0.763178148441,-1.33340442952,0.0831365355618
1487138107773773014,-0.763170321519,-1.33340721196,0.0831039963296
1487138107773879056,-0.763168523248,-1.33340720303,0.0830938997183
1487138107774785346,-0.763181951802,-1.33340275826,0.0831498090251
1487138107776699302,-0.763178966794,-1.33340220802,0.0831309976711
1487138107776757718,-0.763176922297,-1.33340167561,0.0831168558157
1487138107812920208,-0.763174428499,-1.33340111066,0.0831016720499
1487138107812992332,-0.763181514982,-1.33339458487,0.0831653793595
1487138107813057166,-0.763178505469,-1.33339404387,0.0831508097049
1487138107813246082,-0.763189247928,-1.33339167552,0.0831960444688
1487138107813367999,-0.76318438286,-1.33339151627,0.0831762699158
1487138107813459540,-0.763180430251,-1.33339218768,0.0831612278243
1487138107813543415,-0.763192461271,-1.33339104098,0.083202153285
1487138107813764123,-0.763188529272,-1.33339199958,0.0831875415247
1487138107813906414,-0.76318485973,-1.3333931805,0.0831736316259
1487138107813980039,-0.763180241262,-1.33339477492,0.083155604254
1487138107814056831,-0.763177101955,-1.33339580763,0.0831428236083
1487138107814221956,-0.763192784047,-1.33339583603,0.0831867663556
1487138107814289289,-0.763189141544,-1.3333968142,0.0831714233609
1487138107814354705,-0.763185957934,-1.33339722022,0.083157930314
1487138107819980281,-0.763181563299,-1.33339705699,0.0831392889163
1487138107858051350,-0.76319463124,-1.33339431539,0.0831872831865
1487138107858133517,-0.763191859889,-1.3333935494,0.0831754602909
1487138107858221059,-0.763202181857,-1.33339099577,0.0832176756301
1487138107858274850,-0.763197098862,-1.33338928755,0.083195062939
1487138107858418892,-0.763193590868,-1.33338858253,0.0831789078716
1487138107858477058,-0.763203792577,-1.33338692946,0.0832178413881
1487138107858548225,-0.763199963996,-1.33338660517,0.0832005704133
1487138107858632433,-0.763197417869,-1.33338693203,0.0831895078995
1487138107858678475,-0.763207365905,-1.33338544023,0.0832275083741
1487138107858752558,-0.763202626153,-1.33338634347,0.0832074765945
1487138107858799391,-0.763199871697,-1.33338710704,0.0831964198519
1487138107858853141,-0.763195958243,-1.33338816988,0.0831808864687
1487138107860369639,-0.763191863301,-1.33338914803,0.0831642155899
1487138107898593750,-0.763187127926,-1.3333900636,0.083144118084
1487138107898663292,-0.763197910007,-1.33338785558,0.0831942600163
1487138107898743333,-0.763194173065,-1.33338819232,0.0831771812245
1487138107898798708,-0.763205801426,-1.33338783738,0.0832175366498
1487138107898935125,-0.763202264672,-1.33338764986,0.0831995327057
1487138107899012124,-0.763198915061,-1.33338691232,0.0831820188796
1487138107899090833,-0.763209460735,-1.33338503209,0.0832209737664
1487138107899169958,-0.76320437816,-1.33338294693,0.0831930783261
1487138107899257541,-0.763213750653,-1.33338105431,0.0832311480316
1487138107899958123,-0.763207935153,-1.33337819298,0.0832009340934
1487138107900046415,-0.763203796945,-1.33337712027,0.0831817804028
1487138107900187623,-0.763200510344,-1.33337668028,0.0831680248048
1487138107900330914,-0.763210532113,-1.33337718387,0.0832071071057
1487138107900425664,-0.763206591604,-1.33337687598,0.0831912187577
1487138107938176484,-0.763201079586,-1.33337712051,0.0831691656258
1487138107938269859,-0.763210967684,-1.33337767593,0.0832069193027
1487138107938330401,-0.763205728072,-1.33337859334,0.0831862735463
1487138107938399109,-0.763203747021,-1.33337915568,0.0831782440337
1487138107938531942,-0.763199291498,-1.33338053797,0.0831599532876
1487138107938650400,-0.76320895183,-1.33338000469,0.0832003693651
1487138107938850858,-0.763203584709,-1.33338163974,0.0831789339454
1487138107938907275,-0.763198917684,-1.33338308744,0.083161119855
1487138107939183775,-0.763207836893,-1.33338217771,0.0832028672581
1487138107939249983,-0.763204271116,-1.33338321451,0.0831896547884
1487138107939312816,-0.763198967554,-1.33338476581,0.0831700998565
1487138107939749190,-0.763208523986,-1.33338675798,0.08320855437
1487138107939825065,-0.763203831026,-1.33338800936,0.0831918924359
1487138107939916399,-0.763200293106,-1.3333889917,0.0831789909626
1487138107979306675,-0.763193917159,-1.33339069335,0.0831558204604
1487138107979414383,-0.763204550608,-1.33338927054,0.0831959879165
1487138107979478550,-0.763201153521,-1.33339019997,0.0831834138553
1487138107979537924,-0.763196858836,-1.33339163809,0.0831666186773
1487138107979598258,-0.7631924175,-1.33339313025,0.0831489038301
1487138107979661716,-0.763187669596,-1.33339456073,0.0831296849224
1487138107979822049,-0.763182788334,-1.33339574929,0.0831100509818
1487138107979892674,-0.76319367226,-1.33339068353,0.0831632809545
1487138107980006674,-0.763188188008,-1.33339161547,0.0831414818344
1487138107980063049,-0.763183164465,-1.33339225525,0.083120298721
1487138107980125382,-0.763179377656,-1.33339255022,0.0831032645224
1487138107980524465,-0.763175096235,-1.33339266961,0.0830823691099
1487138107980580715,-0.763188876688,-1.33338978627,0.0831404099302
1487138107985425541,-0.763184318657,-1.33338954306,0.0831157555363
1487138108018314577,-0.763198838158,-1.33339079336,0.0831609758109
1487138108018390660,-0.763195531039,-1.33339056226,0.0831384807011
1487138108018461368,-0.763191510261,-1.33339014299,0.0831069365545
1487138108018526993,-0.763203886411,-1.33338900834,0.0831538943909
1487138108018622410,-0.763201116257,-1.33338837267,0.0831303296477
1487138108018738493,-0.763198853638,-1.33338797824,0.0831124509768
1487138108018802201,-0.763196364722,-1.33338753509,0.0830933148291
1487138108018989367,-0.763205974366,-1.33338480128,0.0831471054469
1487138108019055409,-0.763203001436,-1.3333840448,0.0831234736597
1487138108019160950,-0.763200717043,-1.33338329862,0.0831049873764
1487138108019348200,-0.76320889426,-1.33338225064,0.0831537381667
1487138108019603908,-0.763206711916,-1.33338124658,0.0831364574074
1487138108058206769,-0.763204046627,-1.33337994054,0.0831158667711
1487138108058285477,-0.763212703669,-1.33338016422,0.0831626981245
1487138108058333435,-0.763210041161,-1.33337848999,0.0831428101819
1487138108058446435,-0.763207727374,-1.33337690693,0.0831256829983
1487138108058697976,-0.7632050924,-1.33337504782,0.0831068325924
1487138108058785393,-0.763214396676,-1.33337581763,0.0831542926285
1487138108058891435,-0.763211407051,-1.33337346565,0.0831329778671
1487138108059008601,-0.763208921486,-1.33337151701,0.0831152505862
1487138108059055934,-0.763216832153,-1.3333724697,0.0831600601215
1487138108059229351,-0.76321396208,-1.33336974345,0.0831383844716
1487138108059415309,-0.763211038247,-1.33336633944,0.0831118249498
1487138108059481809,-0.763209731595,-1.33336435341,0.0830965422197
1487138108098686210,-0.763208314685,-1.33336159298,0.0830754019084
1487138108098803960,-0.763206870928,-1.33335810929,0.0830490705471
1487138108098910543,-0.763216627551,-1.33335952313,0.0831109049669
1487138108098995918,-0.763215832321,-1.33335665741,0.0830911226358
1487138108099075460,-0.763222049634,-1.33335648436,0.083143943571
1487138108099126001,-0.763220911893,-1.33335182273,0.0831099673387
1487138108099258251,-0.763220116631,-1.33334999403,0.0830932729646
1487138108099325501,-0.763218970907,-1.33334793136,0.0830711104863
1487138108099381876,-0.763226241143,-1.33334988623,0.0831252952339
1487138108099433751,-0.763224833332,-1.33334775932,0.0831005672649
1487138108099519084,-0.763229374601,-1.33335051488,0.0831486123876
1487138108099570126,-0.763228226788,-1.33334900447,0.0831298712601
1487138108099698000,-0.763227084914,-1.33334751098,0.0831108541197
1487138108099755917,-0.763232949647,-1.33335087428,0.0831548026952
1487138108138216736,-0.7632317018,-1.33334881801,0.0831324503265
1487138108138340403,-0.763236086916,-1.33335102871,0.0831733381581
1487138108138406403,-0.763234425889,-1.33334690022,0.083136287024
1487138108138552402,-0.76323441121,-1.3333468217,0.0831357368029
1487138108138633694,-0.763233883084,-1.33334395808,0.0831157200878
1487138108138714736,-0.763233562666,-1.333341033,0.0830969550202
1487138108138823652,-0.763240256489,-1.33334570175,0.0831428005973
1487138108138962860,-0.763240361688,-1.33334069092,0.0831137370469
1487138108139101193,-0.763240833698,-1.33333760195,0.0830969216604
1487138108139165277,-0.763244025405,-1.33334147491,0.0831453903584
1487138108139360776,-0.763244958365,-1.33333711195,0.0831236692666
1487138108139730567,-0.763245925129,-1.3333339622,0.0831076940617
1487138108140087150,-0.763246615877,-1.33333657204,0.0831560151083
1487138108140193317,-0.763248273415,-1.33333111386,0.0831303348991
1487138108179016344,-0.763249124226,-1.33332870338,0.0831181455246
1487138108179086094,-0.763250923352,-1.33332347528,0.0830911438002
1487138108179135469,-0.76325671051,-1.33333242116,0.0831339167875
1487138108179207344,-0.763258712337,-1.33332644172,0.0831007209767
1487138108179268677,-0.763259783431,-1.33332307808,0.0830793068299
1487138108179347385,-0.763260776213,-1.33331969009,0.0830550681517
1487138108179426385,-0.763261502798,-1.33331691448,0.0830319089628
1487138108179588885,-0.7632635148,-1.33332518671,0.0830904822051
1487138108179635010,-0.763264517467,-1.33332161688,0.0830559511355
1487138108179804968,-0.763267460854,-1.3333269934,0.0831099596324
1487138108179866551,-0.763267861519,-1.33332616465,0.0830972445488
1487138108179922051,-0.763268610721,-1.33332530258,0.0830777966557
1487138108179969717,-0.763272670435,-1.33333191057,0.0831223224431
1487138108180023176,-0.763274012392,-1.33333133747,0.083099984824
1487138108184560461,-0.763276429338,-1.33333116341,0.0830736314178
1487138108223114738,-0.763275362201,-1.33333550626,0.083124830764
1487138108223230196,-0.763278371647,-1.33333548648,0.0831014825053
1487138108223299780,-0.763281353255,-1.33333535773,0.083081923899
1487138108223370571,-0.763285240789,-1.33334319992,0.0831215159347
1487138108223470821,-0.763289417304,-1.33334272265,0.0830982170046
1487138108223554946,-0.763292167445,-1.33334203518,0.0830845763999
1487138108223631404,-0.763295755994,-1.3333408956,0.0830675964799
1487138108223732237,-0.76330003707,-1.33333930977,0.0830475387402
1487138108223825029,-0.763297818435,-1.33334386891,0.0830999633879
1487138108223928529,-0.763304039538,-1.33334150698,0.0830709754191
1487138108223990529,-0.763300486355,-1.33334541675,0.083119968783
1487138108224051404,-0.76330388616,-1.33334421147,0.0831028038788
1487138108224120653,-0.763308588354,-1.33334280983,0.0830768694505
1487138108263541513,-0.763312476447,-1.33334194926,0.0830541905989
1487138108263604763,-0.763313093305,-1.33334816644,0.083101062868
1487138108263661888,-0.763316766675,-1.33334764226,0.0830806654117
1487138108263714054,-0.763313242592,-1.33335029992,0.0831260743296
1487138108263784638,-0.763316575874,-1.3333498796,0.0831085857017
1487138108263896887,-0.763321149178,-1.33334937645,0.0830847794741
1487138108263966596,-0.763323324234,-1.33334914245,0.083073622035
1487138108264051971,-0.763326317199,-1.33334878989,0.0830585045396
1487138108264195137,-0.763320494588,-1.33334957494,0.0831115992723
1487138108264287679,-0.763325531916,-1.33334871248,0.0830876255372
1487138108264346887,-0.763328363235,-1.33334807563,0.0830750388823
1487138108264501137,-0.763324049995,-1.33335084679,0.0831191913113
1487138108264565137,-0.763328883244,-1.33334952279,0.0830985965795
1487138108303250914,-0.763333231062,-1.33334849317,0.0830808596688
1487138108303334247,-0.763337432625,-1.33334764867,0.0830640886325
1487138108303400997,-0.763343491006,-1.3333467841,0.0830399275223
1487138108303535997,-0.763340916231,-1.33335291913,0.0830906776067
1487138108303604538,-0.763347832948,-1.33335266849,0.0830632255243
1487138108303667997,-0.763351021214,-1.33335302622,0.0830490022881
1487138108303744705,-0.763355124338,-1.33335381694,0.083028709616
1487138108303814788,-0.763341404469,-1.3333552967,0.0830915634148
1487138108303893580,-0.763345560234,-1.33335641274,0.0830670318778
1487138108303950288,-0.763347036816,-1.33335705392,0.0830562990459
1487138108304097913,-0.763336435436,-1.33335811236,0.0831138058989
1487138108304147829,-0.763338720237,-1.33335937683,0.0830948822631
1487138108304194787,-0.763340035359,-1.33336027524,0.0830836043542
1487138108348116640,-0.763331046473,-1.33336028368,0.0831352748498
1487138108348220807,-0.763333218925,-1.33336190854,0.0831160028329
1487138108348286182,-0.763335978903,-1.33336368272,0.0830950462937
1487138108348400307,-0.763326517605,-1.33336259506,0.0831463418772
1487138108348482557,-0.763329668829,-1.33336415049,0.0831246014886
1487138108348547765,-0.763332416267,-1.33336535142,0.0831068207272
1487138108348723181,-0.763322794539,-1.3333664171,0.0831563640186
1487138108348881181,-0.763325460335,-1.33336746732,0.0831383758132
1487138108349030639,-0.763327188753,-1.33336814618,0.0831269321552
1487138108349080431,-0.763319968433,-1.3333687608,0.0831701733182
1487138108349203014,-0.763322690356,-1.33336988472,0.0831503967615
1487138108349273930,-0.763324183888,-1.33337057882,0.0831381195894
1487138108349339889,-0.763326023101,-1.33337146413,0.0831220795571
1487138108349494222,-0.763327797617,-1.33337243742,0.0831040614908
1487138108349554847,-0.7633198284,-1.33337215681,0.0831543441241
1487138108394156782,-0.763321073813,-1.3333732448,0.0831369086395
1487138108394247782,-0.763321923754,-1.3333743881,0.0831229572459
1487138108394364532,-0.763317264631,-1.33337402097,0.0831677965839
1487138108394501448,-0.763317923411,-1.33337537434,0.083153049568
1487138108394568948,-0.763318546007,-1.33337682746,0.0831394645888
1487138108394650198,-0.763319156387,-1.33337846872,0.0831257051168
1487138108394695490,-0.763320016227,-1.33338127948,0.0831035110796
1487138108394823323,-0.763312272534,-1.3333796374,0.0831550302713
1487138108395075031,-0.763312209456,-1.33338203814,0.0831382297615
1487138108395326530,-0.763304861406,-1.33337860815,0.0831833792851
1487138108395404280,-0.763304679429,-1.33338068519,0.0831712705572
1487138108395462905,-0.763304552976,-1.33338319889,0.083157689236
1487138108395521072,-0.763304574291,-1.33338513408,0.083147439273
1487138108395575780,-0.763301068444,-1.33338449633,0.0831872496609
1487138108395637405,-0.763301271909,-1.33338762289,0.0831707259749
1487138108433245517,-0.763298977515,-1.3333866432,0.0832060830034
1487138108433342767,-0.76329940719,-1.33338937142,0.0831913437987
1487138108433433475,-0.76329999197,-1.33339176833,0.0831779544828
1487138108433494558,-0.763301084517,-1.33339549618,0.0831562344952
1487138108433588933,-0.763295360357,-1.33339139356,0.0831975616166
1487138108433656767,-0.763295880926,-1.3333935146,0.0831831803221
1487138108433752433,-0.763296382131,-1.33339548176,0.0831692949446
1487138108433905724,-0.763294003461,-1.33339343095,0.0832048648866
1487138108434326099,-0.763294365766,-1.33339648121,0.0831825109799
1487138108434443265,-0.763294214757,-1.33339836366,0.0831674954229
1487138108434536557,-0.763292414132,-1.33339632291,0.0832022325856
1487138108434760890,-0.763291697102,-1.33339908933,0.0831795795079
1487138108435243264,-0.763291111332,-1.33340063617,0.0831677378751
1487138108437462594,-0.763286664894,-1.33339587433,0.0832057481808
1487138108437761511,-0.763285221237,-1.33339895354,0.0831829167169
1487138108473055209,-0.763284647699,-1.33340012685,0.0831747360644
1487138108473102459,-0.763283403903,-1.33340266971,0.0831570275295
1487138108473156376,-0.763280545584,-1.3333992674,0.0831960653708
1487138108473208959,-0.763278984403,-1.33340224841,0.0831750414527
1487138108473269042,-0.763278356342,-1.33340366325,0.0831645884314
1487138108473347001,-0.76327600498,-1.33339822166,0.0832038890613
1487138108473431209,-0.763274703269,-1.33340071959,0.083182611098
1487138108473579542,-0.763274417051,-1.33340132218,0.0831753141774
1487138108473746542,-0.763273799097,-1.3334025998,0.0831569665688
1487138108473905708,-0.763273375782,-1.33340328735,0.0831414519207
1487138108473958458,-0.763272922346,-1.33340066692,0.083182379063
1487138108474015458,-0.763272279997,-1.33340117586,0.0831647100053
1487138108513686109,-0.763271675383,-1.33340172021,0.0831500936374
1487138108513750567,-0.763270641361,-1.33340265432,0.083128922146
1487138108513814484,-0.763268453421,-1.33339881452,0.0831737934404
1487138108513892734,-0.763266800746,-1.33340023804,0.0831491526874
1487138108514003442,-0.763265699643,-1.33340176887,0.0831327265569
1487138108514086900,-0.763264175801,-1.33339745664,0.0831776848367
1487138108514177983,-0.763262402364,-1.33340012231,0.0831548827769
1487138108514261941,-0.763261584252,-1.33340175992,0.0831444335477
1487138108514404650,-0.763263156811,-1.33339825893,0.0831842489057
1487138108514626441,-0.763261866905,-1.33340088448,0.083168578994
1487138108514719649,-0.763260238324,-1.33340476667,0.0831475825757
1487138108514769107,-0.763262428561,-1.33340186006,0.0831863409526
1487138108514962024,-0.763261160428,-1.33340504238,0.0831703320105
1487138108515190732,-0.763259856998,-1.33340894146,0.0831523381344
1487138108553197802,-0.763260436536,-1.33340378561,0.0831903903662
1487138108553247135,-0.76325876273,-1.33340878544,0.0831685604517
1487138108553398510,-0.763257547467,-1.33341287591,0.0831513419844
1487138108553451176,-0.763256275724,-1.33341727136,0.0831321150677
1487138108553612093,-0.763256723324,-1.33340992505,0.0831738608176
1487138108553670968,-0.763255037611,-1.33341556999,0.0831473047629
1487138108553719718,-0.76325429439,-1.33341911416,0.0831292530779
1487138108553775509,-0.763258520655,-1.3334165108,0.0831640392521
1487138108553828384,-0.763257977014,-1.33342032931,0.0831438002961
1487138108553884009,-0.763257863247,-1.33342307855,0.0831289949169
1487138108553933801,-0.763257483954,-1.33341569089,0.0831700085507
1487138108553986342,-0.763257471324,-1.33341907069,0.0831510408439
1487138108554113134,-0.76325763973,-1.33342219371,0.0831339353686
1487138108556390047,-0.763257817915,-1.33342597458,0.0831138424892
1487138108557364129,-0.763259359211,-1.33342163903,0.0831569027511
1487138108594988241,-0.763259378025,-1.33342513578,0.0831395622586
1487138108595052074,-0.763259227442,-1.3334288146,0.0831229410942
1487138108595195449,-0.76325867901,-1.33343419111,0.0830999439854
1487138108595250407,-0.763257719464,-1.33343973172,0.0830772206991
1487138108595303866,-0.763259676829,-1.33343250824,0.0831265438489
1487138108595357741,-0.763258557643,-1.33343761488,0.0831065923021
1487138108595406157,-0.763259318872,-1.33342780798,0.0831525764758
1487138108595658407,-0.763257978884,-1.33343412112,0.0831292079242
1487138108595717032,-0.763258278374,-1.3334269331,0.0831697427544
1487138108595775407,-0.763257114624,-1.33343434003,0.0831436609606
1487138108633199644,-0.763256621271,-1.33343904987,0.0831266344971
1487138108633254852,-0.763255970157,-1.33343004371,0.0831689868179
1487138108633430602,-0.763255526024,-1.33343481268,0.0831508950155
1487138108633484560,-0.763255475089,-1.33343864578,0.0831357949146
1487138108633544269,-0.763255750357,-1.3334426718,0.0831190722106
1487138108633721143,-0.763259805886,-1.33343500692,0.0831567986956
1487138108633937560,-0.763260571064,-1.3334389271,0.0831391660136
1487138108633992476,-0.763261534998,-1.33344212548,0.083124417743
1487138108634109893,-0.763261012967,-1.33343447893,0.0831667469692
1487138108634174893,-0.763262198394,-1.33343800246,0.0831503344784
1487138108634294601,-0.763263506022,-1.33344248847,0.0831314501497
1487138108634352142,-0.76326555563,-1.33343525627,0.0831695788768
1487138108634404809,-0.763266391463,-1.33344039477,0.0831504556809
1487138108634461101,-0.763266491449,-1.33344536853,0.0831340020709
1487138108673299753,-0.763265946433,-1.3334521736,0.0831120959797
1487138108673866585,-0.763266131049,-1.33344284284,0.0831560976006
1487138108673934085,-0.763264968238,-1.33344947221,0.0831345021675
1487138108674010918,-0.763264306916,-1.33345319384,0.083122161338
1487138108674059335,-0.763264873233,-1.33344329946,0.0831637444444
1487138108674128126,-0.763263922749,-1.33344874785,0.0831453129249
1487138108674189793,-0.76326329658,-1.33345361622,0.0831284028
1487138108674275585,-0.763266293701,-1.3334450399,0.0831646986749
1487138108674348751,-0.763265973128,-1.33344931436,0.0831481047881
1487138108674427293,-0.763266003851,-1.33345340657,0.0831304833182
1487138108674553792,-0.763266320362,-1.33345715493,0.0831116231179
1487138108674647959,-0.763264889822,-1.33344756123,0.083153785036
1487138108674815542,-0.763265722115,-1.33345298346,0.0831186454047
1487138108679373452,-0.763266525926,-1.33345555631,0.0830984571826
1487138108679420535,-0.763265145265,-1.33344487355,0.0831428726404
1487138108718023521,-0.763266350801,-1.33344766499,0.083118519025
1487138108718108229,-0.763267984405,-1.33343811179,0.0831577180863
1487138108718164688,-0.763269962514,-1.33344174695,0.083127805322
1487138108718364896,-0.763270838124,-1.33344463289,0.0831103675418
1487138108718423979,-0.763270511751,-1.33343681739,0.0831539227197
1487138108718472479,-0.763271156644,-1.33343992273,0.0831365872555
1487138108718521354,-0.76327164298,-1.3334436021,0.0831180916362
1487138108718571479,-0.763274835521,-1.33343734929,0.0831524155581
1487138108718634520,-0.763275087058,-1.33344108784,0.083134256045
1487138108718859520,-0.763275216585,-1.33344426166,0.0831198260557
1487138108718925187,-0.763275427504,-1.33344879701,0.0830997466642
1487138108718981895,-0.763272587208,-1.33343919665,0.0831439505761
1487138108719042020,-0.763272764911,-1.33344322356,0.083126048728
1487138108758252421,-0.763272991248,-1.33344698771,0.0831094449536
1487138108758341838,-0.763273291464,-1.33345141964,0.0830888973705
1487138108758483379,-0.763272922517,-1.33344222497,0.0831331815362
1487138108758582671,-0.763273256398,-1.33344590799,0.0831131933796
1487138108758852295,-0.763273620538,-1.33344805922,0.0830995546776
1487138108758931337,-0.763270013943,-1.33343719687,0.0831456833488
1487138108759558961,-0.76327066938,-1.33344079233,0.0831189921819
1487138108759630128,-0.763271032942,-1.33344288988,0.0831027153959
1487138108759698336,-0.763270087848,-1.33343509784,0.0831440408561
1487138108759849877,-0.763270323449,-1.3334372063,0.0831265718493
1487138108759930752,-0.763270386917,-1.33343931736,0.083110374956
1487138108759992752,-0.763270214175,-1.33344219564,0.0830891808082
1487138108760148168,-0.763268070017,-1.33343369991,0.0831363241212
1487138108798631321,-0.763267371171,-1.33343745898,0.0831095009248
1487138108798723696,-0.763267143436,-1.33343077725,0.0831501191885
1487138108798798654,-0.763266033242,-1.33343505825,0.0831228456809
1487138108798868571,-0.763265569996,-1.33343682937,0.0831129484072
1487138108798929446,-0.763264452569,-1.33344104476,0.0830901130421
1487138108799112029,-0.763263544286,-1.33344420178,0.0830740480801
1487138108799184404,-0.763262478111,-1.33344789058,0.0830553686005
1487138108799258112,-0.763265168185,-1.33343796976,0.0831046937824
1487138108799323112,-0.763264197263,-1.33344130364,0.0830864562258
1487138108799404320,-0.763268340661,-1.33343665058,0.0831243213893
1487138108799515820,-0.763267211005,-1.33344178586,0.0830939806742
1487138108799589736,-0.763267183906,-1.33344390467,0.0830773971584
1487138108799688195,-0.763266966451,-1.33343506065,0.0831248380256
1487138108805179145,-0.763267352395,-1.33343706161,0.0831053797233
1487138108805232353,-0.763266095788,-1.3334294567,0.0831460361963
1487138108843410673,-0.763266860482,-1.33343077464,0.0831310574722
1487138108843458173,-0.763267975522,-1.333432171,0.083116164596
1487138108843510923,-0.763269232568,-1.33343354844,0.0831015164208
1487138108843568423,-0.763270124732,-1.33342868984,0.0831425553048
1487138108843670006,-0.763271654752,-1.33343017849,0.0831254955201
1487138108843718464,-0.76327297432,-1.33343165716,0.0831099817651
1487138108844140380,-0.763271456178,-1.33342418657,0.0831522804774
1487138108844187463,-0.763272783854,-1.33342590612,0.0831337621248
1487138108844234672,-0.763273634941,-1.33342768655,0.083118422448
1487138108844285630,-0.763275718312,-1.33342321054,0.0831516072055
1487138108844346713,-0.763276658319,-1.33342596219,0.0831312363821
1487138108844402005,-0.763277026592,-1.3334277485,0.083120864887
1487138108883497198,-0.763277704085,-1.33343137617,0.0831011739378
1487138108883598490,-0.763278422135,-1.33343429754,0.0830856742923
1487138108883682573,-0.763272331838,-1.33342446815,0.0831354121935
1487138108883751906,-0.763273162516,-1.33342713164,0.0831196244371
1487138108883825031,-0.763275050675,-1.33342199067,0.0831530934175
1487138108883915572,-0.76327691567,-1.33342535746,0.0831297431987
1487138108884000656,-0.763277851114,-1.33342622211,0.0831213388765
1487138108884092239,-0.763279569343,-1.33342751578,0.083106877285
1487138108884160364,-0.763281867267,-1.33342081717,0.0831439636979
1487138108884286280,-0.763285395231,-1.33342244032,0.0831183451382
1487138108884343655,-0.763286410136,-1.33342272211,0.0831115743576
1487138108884405905,-0.763288419355,-1.33342321177,0.0830983467345
1487138108884464405,-0.763291347823,-1.3334238587,0.0830794992066
1487138108924438847,-0.763294152155,-1.33342453698,0.0830615324044
1487138108924568097,-0.763295407282,-1.33341945582,0.0831076891137
1487138108924666972,-0.763299155475,-1.33342034536,0.0830848731071
1487138108924742680,-0.763302529675,-1.33342171058,0.0830627293176
1487138108924846638,-0.763305047731,-1.33342305653,0.083044147304
1487138108924968138,-0.76330484106,-1.33341896548,0.0830948969006
1487138108925134013,-0.763307460853,-1.33342043857,0.0830753793443
1487138108925201346,-0.763303014072,-1.33341252296,0.0831259747486
1487138108925291346,-0.763304950458,-1.3334135997,0.083111860682
1487138108925425471,-0.763306428253,-1.33341447664,0.083101475635
1487138108925573720,-0.763308236532,-1.33341545964,0.083088931272
1487138108925638762,-0.763302745569,-1.33340886455,0.0831377522962
1487138108925708470,-0.763304725733,-1.3334095802,0.0831245405143
1487138108925774554,-0.763306665249,-1.33341018984,0.083112456
1487138108964337414,-0.763302666859,-1.33340580254,0.0831544691725
1487138108964482622,-0.76330507802,-1.33340632522,0.0831400210418
1487138108964542747,-0.763306686666,-1.33340672724,0.0831305805077
1487138108964616831,-0.763308804733,-1.33340719794,0.0831177965324
1487138108964704872,-0.763301729013,-1.33340239651,0.0831613717565
1487138108964959372,-0.763303997508,-1.33340247379,0.0831462678375
1487138108965014038,-0.763305744025,-1.33340216929,0.0831339776669
1487138108965820704,-0.763301064846,-1.33339676937,0.083175561179
1487138108965910579,-0.763302919455,-1.3333958164,0.0831632098216
1487138108966740036,-0.763304468048,-1.33339504035,0.0831545837505
1487138108966833661,-0.763297247519,-1.33339042213,0.0831939896855
1487138108966899327,-0.763299123981,-1.33338923155,0.083184182638
1487138108966955202,-0.763301225361,-1.33338823231,0.0831740975445
1487138108967006744,-0.763303953187,-1.33338726559,0.083160909463
1487138108970743655,-0.763301435238,-1.33338544827,0.0831955599962
1487138109003210441,-0.763303044536,-1.33338493018,0.0831877118976
1487138109003279150,-0.763305111781,-1.33338450961,0.0831778853253
1487138109003399733,-0.763307506637,-1.33338421021,0.0831665328574
1487138109003462983,-0.763309693371,-1.33338412753,0.0831561851082
1487138109003545607,-0.763308326879,-1.33338184452,0.0831924339559
1487138109003625274,-0.763311269289,-1.33338171999,0.0831792918771
1487138109003705441,-0.763304611901,-1.33337919645,0.0832159463915
1487138109003803524,-0.763307090689,-1.33337904423,0.0832053018153
1487138109003881815,-0.763308999649,-1.33337899171,0.0831976311742
1487138109003967940,-0.763313085768,-1.3333788174,0.0831816990917
1487138109004044190,-0.763315980035,-1.33337835059,0.083171074828
1487138109043194383,-0.763306391729,-1.33337489616,0.0832116268927
1487138109043324883,-0.763310473438,-1.33337371831,0.0831972064789
1487138109043427300,-0.763315669257,-1.33337221421,0.083179809013
1487138109043509800,-0.76331253888,-1.33337615878,0.0832105410962
1487138109043607758,-0.763315487944,-1.3333753131,0.083201571365
1487138109043692924,-0.763318525442,-1.33337464664,0.0831930897621
1487138109043764216,-0.763310457642,-1.33337184846,0.083227507318
1487138109043828091,-0.763315926812,-1.33337052579,0.0832136103331
1487138109043896216,-0.763319142534,-1.33336970558,0.0832057384719
1487138109043966466,-0.763322814164,-1.33336872192,0.0831966468104
1487138109044044257,-0.763314419108,-1.33336806733,0.0832327561883
1487138109044122090,-0.763319355017,-1.33336653706,0.0832205304914
1487138109083197450,-0.763323153267,-1.33336547967,0.0832110663287
1487138109083325325,-0.763314967441,-1.33336703993,0.0832397711032
1487138109083409908,-0.763320997983,-1.33336540253,0.0832250438943
1487138109083500283,-0.763322987583,-1.33336501457,0.0832202970514
1487138109083587242,-0.763319985128,-1.33336689012,0.0832433424642
1487138109083671950,-0.763326469772,-1.33336565204,0.0832282472975
1487138109083793491,-0.763330162859,-1.33336504666,0.083219492747
1487138109083862033,-0.763332321967,-1.33336466494,0.083214523057
1487138109083933741,-0.763335287927,-1.3333641087,0.0832079276729
1487138109084061991,-0.763327382917,-1.33336252755,0.0832436671009
1487138109084150616,-0.763332462993,-1.33336135787,0.0832331586735
1487138109084227116,-0.763323668737,-1.33336145317,0.0832605300895
1487138109084308574,-0.763330231479,-1.33335983157,0.083247568004
1487138109084712323,-0.763333197327,-1.33335911942,0.0832418305113
1487138109123978308,-0.763335682255,-1.33335852796,0.0832370553985
1487138109124132766,-0.763325737307,-1.33335868943,0.0832639038936
1487138109124211766,-0.763330680187,-1.33335739937,0.083254553253
1487138109124292224,-0.763335075986,-1.33335649189,0.0832463954007
1487138109124378474,-0.763340047852,-1.33335562875,0.0832371320939
1487138109124463349,-0.763328967802,-1.33335548488,0.083267670718
1487138109124576349,-0.763334165335,-1.33335469858,0.0832579710141
1487138109124654890,-0.763338158256,-1.33335442073,0.0832504367877
1487138109124738182,-0.763326559952,-1.33335653956,0.0832763533182
1487138109124809515,-0.763331838152,-1.33335634423,0.083266328154
1487138109124880640,-0.763337398173,-1.33335639868,0.0832556641735
1487138109124965223,-0.763334127835,-1.33335873553,0.0832741901484
1487138109125036890,-0.763340779511,-1.33335883722,0.0832615508471
1487138109125214306,-0.76334496474,-1.3333589086,0.0832536979919
1487138109163138001,-0.763348509463,-1.3333589047,0.0832470439009
1487138109163190960,-0.763342063423,-1.33336266658,0.0832668366635
1487138109163238626,-0.76334720958,-1.33336261092,0.083257257711
1487138109163284959,-0.763351690552,-1.33336264067,0.0832490079843
1487138109163412709,-0.763356756113,-1.33336276111,0.0832397904796
1487138109163590501,-0.763348561616,-1.33336538492,0.0832606085308
1487138109163651876,-0.763354019276,-1.33336570282,0.0832510535515
1487138109163706250,-0.763358408032,-1.33336610348,0.0832437499271
1487138109163755875,-0.763363634178,-1.33336655414,0.0832351984095
1487138109163896458,-0.763355419869,-1.33336831205,0.0832569857301
1487138109163960208,-0.763361078258,-1.33336873114,0.0832480349818
1487138109164042792,-0.763349088812,-1.33336906238,0.0832737021654
1487138109164104667,-0.76335510967,-1.33336950945,0.0832646999679
1487138109166351455,-0.763363273421,-1.33337011916,0.0832525318842
1487138109167757328,-0.763353932949,-1.33337181681,0.0832737219988
1487138109202998235,-0.763358493281,-1.33337208813,0.083265820318
1487138109203101152,-0.763361856851,-1.33337236087,0.0832595345437
1487138109203152693,-0.763354814641,-1.33337490544,0.0832763982528
1487138109203468859,-0.763358854583,-1.33337522197,0.0832683266331
1487138109203532193,-0.763362826081,-1.33337563123,0.0832598229763
1487138109203586151,-0.763365640942,-1.33337600878,0.0832534534366
1487138109203673609,-0.763357085036,-1.33337604371,0.0832731566289
1487138109203823609,-0.76336247144,-1.33337689411,0.0832605608166
1487138109203946900,-0.763354378659,-1.33337636958,0.0832788277344
1487138109204005900,-0.763356848671,-1.33337685268,0.0832728709011
1487138109204149400,-0.763360149162,-1.33337766647,0.0832651026253
1487138109244300134,-0.763363233309,-1.33337846004,0.0832580808756
1487138109244398592,-0.763351692346,-1.33337722955,0.0832813287553
1487138109244502300,-0.763354617276,-1.33337788747,0.0832748139578
1487138109244572467,-0.763357588097,-1.33337849927,0.0832686268814
1487138109244634633,-0.763347143121,-1.33337867579,0.083289655987
1487138109244705383,-0.763351452188,-1.333379353,0.0832809806702
1487138109244793175,-0.763354010294,-1.33337970042,0.0832763205976
1487138109244853758,-0.763345256712,-1.33337847127,0.083293037714
1487138109245170132,-0.763348726985,-1.33337880001,0.0832868608391
1487138109245256841,-0.763351291214,-1.33337901178,0.0832823575843
1487138109245327257,-0.763340649855,-1.33337730791,0.0833011116751
1487138109245402965,-0.763343909981,-1.33337737726,0.0832951576872
1487138109245495424,-0.763346862324,-1.33337746208,0.0832895869216
1487138109245571507,-0.763349652985,-1.33337757815,0.0832838308675
1487138109283199786,-0.763343624906,-1.33337742805,0.0832996100255
1487138109283317035,-0.763349124783,-1.33337783273,0.0832867682184
1487138109283370202,-0.763338881946,-1.33337736642,0.0833040100626
1487138109283424119,-0.763341035024,-1.33337781108,0.083297487452
1487138109283519785,-0.763341097609,-1.33337783282,0.0832972895573
1487138109283662160,-0.763344112707,-1.33337889318,0.0832877443627
1487138109283719202,-0.763345988191,-1.33337975424,0.0832818646654
1487138109283769576,-0.763334735685,-1.333377099,0.0833041081081
1487138109283837118,-0.76333703347,-1.33337823591,0.0832963188886
1487138109283891035,-0.763326847334,-1.3333763386,0.083313946457
1487138109284051534,-0.763328855304,-1.33337744946,0.0833067605831
1487138109284304242,-0.763330675505,-1.33337851013,0.0833006678308
1487138109284380909,-0.763332834409,-1.33337982442,0.0832934666132
1487138109286595156,-0.763335080974,-1.33338141266,0.0832856814345
1487138109287521029,-0.763330212443,-1.33338237407,0.0833004818216
1487138109324784684,-0.763331906732,-1.33338389604,0.0832941593094
1487138109324862350,-0.763333416293,-1.3333855412,0.0832885914047
1487138109324923517,-0.763329392636,-1.33338630854,0.0833006331912
1487138109324979767,-0.763331796552,-1.33338940349,0.0832914830971
1487138109325050100,-0.763333348212,-1.3333916277,0.0832856459001
1487138109325114433,-0.763323897341,-1.33338850976,0.083304754852
1487138109325198766,-0.763326005646,-1.33339196157,0.0832958540209
1487138109325418766,-0.76331709726,-1.33338816472,0.0833145048494
1487138109325478641,-0.763319676214,-1.33339303936,0.0833024779149
1487138109325540099,-0.7633206713,-1.33339519406,0.0832966870453
1487138109325655099,-0.763322018876,-1.33339819861,0.0832878822816
1487138109363638877,-0.763314536617,-1.33339266652,0.0833087834018
1487138109363817835,-0.763316477751,-1.3333970811,0.0832944239469
1487138109363969002,-0.763317121153,-1.33339909546,0.0832883740763
1487138109364091960,-0.763317720543,-1.33340147607,0.083281557309
1487138109364179918,-0.763311869002,-1.33339840875,0.0833014507486
