%time,field.x,field.y,field.z
1487138115418592646,-0.763480603695,-1.33333134651,0.0835825875401
1487138115434883623,-0.763480603695,-1.33333134651,0.0835825875997
1487138115451225641,-0.763480603695,-1.33333134651,0.0835825894207
1487138115461074460,-0.763480603695,-1.33333134651,0.0835826016301
1487138115474536065,-0.763480603695,-1.33333134651,0.0835826461203
1487138115480159599,-0.763480603695,-1.33333134651,0.0835827639122
1487138115492725955,-0.763480603695,-1.33333134651,0.0835830204993
1487138115501165235,-0.763480603695,-1.33333134651,0.0835835106929
1487138115510893804,-0.763480603695,-1.33333134651,0.0835843629871
1487138115521266456,-0.763480603695,-1.33333134651,0.0835857434623
1487138115531996315,-0.763480603695,-1.33333134651,0.0835878592463
1487138115544974796,-0.763480603695,-1.33333134651,0.0835909615501
1487138115554196116,-0.763480603695,-1.33333134651,0.0835953482965
1487138115564379727,-0.763480603695,-1.33333134651,0.0836013663593
1487138115574884503,-0.763480603695,-1.33333134651,0.0836094134291
1487138115580930911,-0.763480603695,-1.33333134651,0.0836199395225
1487138115591303021,-0.763480603695,-1.33333134651,0.0836334481518
1487138115600509758,-0.763480603695,-1.33333134651,0.0836504971704
1487138115611168284,-0.763480603695,-1.33333134651,0.0836716993088
1487138115622129018,-0.763480603695,-1.33333134651,0.0836977224178
1487138115633483793,-0.763480603695,-1.33333134651,0.0837292894328
1487138115643145279,-0.763480603695,-1.33333134651,0.0837671780744
1487138115651172018,-0.763480603695,-1.33333134651,0.0838122202981
1487138115660416838,-0.763480603695,-1.33333134651,0.0838653015089
1487138115670819322,-0.763480603695,-1.33333134651,0.0839273595533
1487138115680196351,-0.763480603695,-1.33333134651,0.0839993835013
1487138115691374668,-0.763480603695,-1.33333134651,0.0840824122323
1487138115701644903,-0.763480603695,-1.33333134651,0.0841775328379
1487138115712362471,-0.763480603695,-1.33333134651,0.0842858788517
1487138115721683040,-0.763480603695,-1.33333134651,0.0844086283209
1487138115730811027,-0.763480603695,-1.33333134651,0.0845470017284
1487138115743554634,-0.763480603695,-1.33333134651,0.0847022597796
1487138115751042415,-0.763480603695,-1.33333134651,0.0848757010627
1487138115763630521,-0.763480603695,-1.33333134651,0.0850686595943
1487138115773215382,-0.763480603695,-1.33333134651,0.0852825022604
1487138115781408787,-0.763480603695,-1.33333134651,0.0855186261635
1487138115793206937,-0.763480603695,-1.33333134651,0.0857784558843
1487138115803150006,-0.763480603695,-1.33333134651,0.0860634406695
1487138115810494287,-0.763480603695,-1.33333134651,0.0863750515533
1487138115820340064,-0.763480603695,-1.33333134651,0.0867147784223
1487138115832834588,-0.763480603695,-1.33333134651,0.0870841270326
1487138115844429488,-0.763480603695,-1.33333134651,0.0874846159875
1487138115854710514,-0.763480603695,-1.33333134651,0.0879177736837
1487138115864295417,-0.763480603695,-1.33333134651,0.0883851352342
1487138115877097649,-0.763480603695,-1.33333134651,0.0888882393753
1487138115890331046,-0.763480603695,-1.33333134651,0.0894286253657
1487138115905451899,-0.763480603695,-1.33333134651,0.0900078298836
1487138115910924016,-0.763480603695,-1.33333134651,0.0906273839305
1487138115919393171,-0.763480603695,-1.33333134651,0.0912888097459
1487138115926033786,-0.763480603695,-1.33333134651,0.0919936177417
1487138115932777360,-0.763480603695,-1.33333134651,0.0927433034612
1487138115941758180,-0.763480603695,-1.33333134651,0.0935393445682
1487138115954121120,-0.763480603695,-1.33333134651,0.0943831978725
1487138115963583898,-0.763480603695,-1.33333134651,0.0952762963976
1487138115973789550,-0.763480603695,-1.33333134651,0.0962200464949
1487138115985403658,-0.763480603695,-1.33333134651,0.0972158250092
1487138115994162104,-0.763480603695,-1.33333134651,0.0982649765015
1487138116009075207,-0.763480603695,-1.33333134651,0.099368810532
1487138116021289190,-0.763480603695,-1.33333134651,0.100528599009
1487138116027228139,-0.763480603695,-1.33333134651,0.101745573607
1487138116034940837,-0.763480603695,-1.33333134651,0.103020923258
1487138116049919023,-0.763480603695,-1.33333134651,0.104355791717
1487138116054081434,-0.763480603695,-1.33333134651,0.105751275213
1487138116063417587,-0.763480603695,-1.33333134651,0.107208420179
1487138116072868615,-0.763480603695,-1.33333134651,0.108728221068
1487138116086575845,-0.763480603695,-1.33333134651,0.110311618262
1487138116093718293,-0.763480603695,-1.33333134651,0.111959496071
1487138116101811740,-0.763480603695,-1.33333134651,0.113672680823
1487138116134081943,-0.763480603695,-1.33333134651,0.115451939056
1487138116162981818,-0.763480603695,-1.33333134651,0.117297975802
1487138116195471729,-0.763480603695,-1.33333134651,0.11921143298
1487138116222517731,-0.763480603695,-1.33333134651,0.12119288788
1487138116253138104,-0.763480603695,-1.33333134651,0.123242851763
1487138116280625356,-0.763480603695,-1.33333134651,0.125361768553
1487138116313549766,-0.763480603695,-1.33333134651,0.127550013644
1487138116336638858,-0.763480603695,-1.33333134651,0.129807892811
1487138116347161759,-0.763480603695,-1.33333134651,0.13213564123
1487138116356179413,-0.763480603695,-1.33333134651,0.134533422602
1487138116368691936,-0.763480603695,-1.33333134651,0.137001328391
1487138116375757218,-0.763480603695,-1.33333134651,0.139539377169
1487138116389722656,-0.763480603695,-1.33333134651,0.142147514071
1487138116399784683,-0.763480603695,-1.33333134651,0.144825610362
1487138116410928500,-0.763480603695,-1.33333134651,0.147573463102
1487138116418419323,-0.763480603695,-1.33333134651,0.15039079494
1487138116434688007,-0.763480603695,-1.33333134651,0.153277253998
1487138116448948862,-0.763480603695,-1.33333134651,0.15623241387
1487138116449004820,-0.763480603695,-1.33333134651,0.159255773734
1487138116458601931,-0.763480603695,-1.33333134651,0.162346758565
1487138116470740122,-0.763480603695,-1.33333134651,0.16550471945
1487138116476194947,-0.763480603695,-1.33333134651,0.168728934016
1487138116499140122,-0.763480603695,-1.33333134651,0.17201860696
1487138116499218872,-0.763480603695,-1.33333134651,0.175372870675
1487138116510756230,-0.763480603695,-1.33333134651,0.178790785983
1487138116519662051,-0.763480603695,-1.33333134651,0.182271342968
1487138116531010909,-0.763480603695,-1.33333134651,0.185813461899
1487138116538638815,-0.763480603695,-1.33333134651,0.189415994261
1487138116551311505,-0.763480603695,-1.33333134651,0.193077723869
1487138116557116997,-0.763480603695,-1.33333134651,0.196797368081
1487138116566760149,-0.763480603695,-1.33333134651,0.200573579098
1487138116580599421,-0.763480603695,-1.33333134651,0.204404945355
1487138116590075866,-0.763480603695,-1.33333134651,0.208289992996
1487138116603996762,-0.763480603695,-1.33333134651,0.21222718743
1487138116612791916,-0.763480603695,-1.33333134651,0.216214934978
1487138116620222322,-0.763480603695,-1.33333134651,0.220251584584
1487138116631866763,-0.763480603695,-1.33333134651,0.224335429614
1487138116644370662,-0.763480603695,-1.33333134651,0.228464709729
1487138116654075065,-0.763480603695,-1.33333134651,0.232637612814
1487138116668049919,-0.763480603695,-1.33333134651,0.236852277
1487138116679241486,-0.763480603695,-1.33333134651,0.241106792724
1487138116684834353,-0.763480603695,-1.33333134651,0.245399204874
1487138116694927922,-0.763480603695,-1.33333134651,0.249727514981
1487138116707066821,-0.763480603695,-1.33333134651,0.25408968347
1487138116711788064,-0.763480603695,-1.33333134651,0.258483631969
1487138116718831471,-0.763480603695,-1.33333134651,0.262907245661
1487138116727795416,-0.763480603695,-1.33333134651,0.267358375687
1487138116736841070,-0.763480603695,-1.33333134651,0.271834841599
1487138116751633381,-0.763480603695,-1.33333134651,0.276334433839
1487138116756839041,-0.763480603695,-1.33333134651,0.280854916271
1487138116770390604,-0.763480603695,-1.33333134651,0.285394028741
1487138116776185429,-0.763480603695,-1.33333134651,0.289949489661
1487138116787906079,-0.763480603695,-1.33333134651,0.294518998635
1487138116796019359,-0.763480603695,-1.33333134651,0.299100239096
1487138116807488592,-0.763480603695,-1.33333134651,0.303690880972
1487138116816997953,-0.763480603695,-1.33333134651,0.308288583364
1487138116829833602,-0.763480603695,-1.33333134651,0.312890997244
1487138116856877646,-0.763480603695,-1.33333134651,0.317495768154
1487138116885597854,-0.763480603695,-1.33333134651,0.322100538923
1487138116914002896,-0.763480603695,-1.33333134651,0.326702952379
1487138116953376298,-0.763480603695,-1.33333134651,0.331300654065
1487138116980020717,-0.763480603695,-1.33333134651,0.33589129495
1487138117015990707,-0.763480603695,-1.33333134651,0.340472534136
1487138117045477206,-0.763480603695,-1.33333134651,0.345042041548
1487138117071518793,-0.763480603695,-1.33333134651,0.349597500619
1487138117100647334,-0.763480603695,-1.33333134651,0.354136610948
1487138117139538111,-0.763480603695,-1.33333134651,0.358657090949
1487138117172042064,-0.763480603695,-1.33333134651,0.363156680461
1487138117196618570,-0.763480603695,-1.33333134651,0.367633143347
1487138117228062066,-0.763480603695,-1.33333134651,0.372084270047
1487138117258780397,-0.763480603695,-1.33333134651,0.376507880106
1487138117266876218,-0.763480603695,-1.33333134651,0.380901824664
1487138117279276200,-0.763480603695,-1.33333134651,0.385263988899
1487138117289503477,-0.763480603695,-1.33333134651,0.389592294434
1487138117297719174,-0.763480603695,-1.33333134651,0.393884701688
1487138117312478652,-0.763480603695,-1.33333134651,0.398139212189
1487138117323348970,-0.763480603695,-1.33333134651,0.402353870817
1487138117333980954,-0.763480603695,-1.33333134651,0.406526768007
1487138117345305396,-0.763480603695,-1.33333134651,0.410656041878
1487138117355507090,-0.763480603695,-1.33333134651,0.414739880314
1487138117366931532,-0.763480603695,-1.33333134651,0.418776522966
1487138117379194681,-0.763480603695,-1.33333134651,0.422764263193
1487138117385279130,-0.763480603695,-1.33333134651,0.426701449933
1487138117398285111,-0.763480603695,-1.33333134651,0.430586489497
1487138117407442890,-0.763480603695,-1.33333134651,0.434417847287
1487138117422203910,-0.763480603695,-1.33333134651,0.438194049438
1487138117428755650,-0.763480603695,-1.33333134651,0.441913684377
1487138117441840715,-0.763480603695,-1.33333134651,0.445575404294
1487138117451138660,-0.763480603695,-1.33333134651,0.44917792654
1487138117462333893,-0.763480603695,-1.33333134651,0.452720034917
1487138117469912382,-0.763480603695,-1.33333134651,0.456200580901
1487138117479924035,-0.763480603695,-1.33333134651,0.459618484752
1487138117488407564,-0.763480603695,-1.33333134651,0.46297273654
1487138117500268380,-0.763480603695,-1.33333134651,0.466262397078
1487138117514615484,-0.763480603695,-1.33333134651,0.469486598746
1487138117520409351,-0.763480603695,-1.33333134651,0.472644546229
1487138117527401341,-0.763480603695,-1.33333134651,0.475735517141
1487138117541090696,-0.763480603695,-1.33333134651,0.478758862559
1487138117553208845,-0.763480603695,-1.33333134651,0.481714007441
1487138117563483455,-0.763480603695,-1.33333134651,0.484600450952
1487138117570527653,-0.763480603695,-1.33333134651,0.487417766675
1487138117579575890,-0.763480603695,-1.33333134651,0.490165602716
1487138117586334172,-0.763480603695,-1.33333134651,0.492843681707
1487138117599724861,-0.763480603695,-1.33333134651,0.495451800696
1487138117607808641,-0.763480603695,-1.33333134651,0.497989830931
1487138117619957415,-0.763480603695,-1.33333134651,0.500457717531
1487138117630555983,-0.763480603695,-1.33333134651,0.502855479052
1487138117641029010,-0.763480603695,-1.33333134651,0.505183206942
1487138117652876034,-0.763480603695,-1.33333134651,0.507441064884
1487138117665520307,-0.763480603695,-1.33333134651,0.509629288037
1487138117679159329,-0.763480603695,-1.33333134651,0.511748182157
1487138117690705063,-0.763480603695,-1.33333134651,0.51379812262
1487138117700449798,-0.763480603695,-1.33333134651,0.515779553332
1487138117712951114,-0.763480603695,-1.33333134651,0.517692985534
1487138117720979560,-0.763480603695,-1.33333134651,0.519538996497
1487138117731957169,-0.763480603695,-1.33333134651,0.521318228118
1487138117742678696,-0.763480603695,-1.33333134651,0.523031385411
1487138117756894592,-0.763480603695,-1.33333134651,0.524679234892
1487138117772261444,-0.763480603695,-1.33333134651,0.526262602869
1487138117780231100,-0.763480603695,-1.33333134651,0.527782373627
1487138117791346667,-0.763480603695,-1.33333134651,0.529239487526
1487138117801625652,-0.763480603695,-1.33333134651,0.530634938999
1487138117815944131,-0.763480603695,-1.33333134651,0.531969774454
1487138117833926188,-0.763480603695,-1.33333134651,0.533245090097
1487138117838845890,-0.763480603695,-1.33333134651,0.534462029658
1487138117855348074,-0.763480603695,-1.33333134651,0.535621782045
1487138117860447442,-0.763480603695,-1.33333134651,0.536725578906
1487138117873523464,-0.763480603695,-1.33333134651,0.537774692125
1487138117883990449,-0.763480603695,-1.33333134651,0.538770431235
1487138117888741276,-0.763480603695,-1.33333134651,0.539714140771
1487138117901551965,-0.763480603695,-1.33333134651,0.540607197551
1487138117911979075,-0.763480603695,-1.33333134651,0.541451007898
1487138117925779305,-0.763480603695,-1.33333134651,0.542247004807
1487138117933908127,-0.763480603695,-1.33333134651,0.54299664506
1487138117952302642,-0.763480603695,-1.33333134651,0.543701406291
1487138117965275373,-0.763480603695,-1.33333134651,0.544362784013
1487138117977401106,-0.763480603695,-1.33333134651,0.544982288609
1487138117983058139,-0.763480603695,-1.33333134651,0.545561442286
1487138117989822504,-0.763480603695,-1.33333134651,0.546101776015
1487138118005555023,-0.763480603695,-1.33333134651,0.546604826442
1487138118015095634,-0.763480603695,-1.33333134651,0.547072132792
1487138118022892956,-0.763480603695,-1.33333134651,0.547505233771
1487138118036982728,-0.763480603695,-1.33333134651,0.547905664455
1487138118044013384,-0.763480603695,-1.33333134651,0.548274953209
1487138118053202496,-0.763480603695,-1.33333134651,0.5486146186
1487138118060088902,-0.763480603695,-1.33333134651,0.548926166348
1487138118071689886,-0.763480603695,-1.33333134651,0.549211086305
1487138118084687117,-0.763480603695,-1.33333134651,0.549470849469
1487138118087457821,-0.763480603695,-1.33333134651,0.549706905047
1487138118096852266,-0.763480603695,-1.33333134651,0.549920677583
1487138118110075580,-0.763480603695,-1.33333134651,0.550113564142
1487138118115146031,-0.763480603695,-1.33333134651,0.550286931569
1487138118127655888,-0.763480603695,-1.33333134651,0.550442113842
1487138118137326332,-0.763480603695,-1.33333134651,0.550580409507
1487138118147508942,-0.763480603695,-1.33333134651,0.550703079231
1487138118162379213,-0.763480603695,-1.33333134651,0.550811343453
1487138118170521659,-0.763480603695,-1.33333134651,0.550906380178
1487138118178161690,-0.763480603695,-1.33333134651,0.550989322896
1487138118186411178,-0.763480603695,-1.33333134651,0.551061258656
1487138118197316912,-0.763480603695,-1.33333134651,0.551123226293
1487138118206854273,-0.763480603695,-1.33333134651,0.55117621483
1487138118217962965,-0.763480603695,-1.33333134651,0.551221162069
1487138118228195075,-0.763480603695,-1.33333134651,0.551258953368
1487138118238996143,-0.763480603695,-1.33333134651,0.551290420634
1487138118250420752,-0.763480603695,-1.33333134651,0.551316341541
1487138118256999825,-0.763480603695,-1.33333134651,0.551337438975
1487138118266485062,-0.763480603695,-1.33333134651,0.551354380737
1487138118277523296,-0.763480603695,-1.33333134651,0.551367779508
1487138118293668772,-0.763480603695,-1.33333134651,0.551378193088
1487138118301573927,-0.763480603695,-1.33333134651,0.55138612494
1487138118305742380,-0.763480603695,-1.33333134651,0.551392025026
1487138118319609651,-0.763480603695,-1.33333134651,0.551396290984
1487138118336311794,-0.763480603695,-1.33333134651,0.551399269634
1487138118354493184,-0.763480603695,-1.33333134651,0.551401258843
1487138118359679260,-0.763480603695,-1.33333134651,0.551402509766
1487138118374389447,-0.763480603695,-1.33333134651,0.551403229474
1487138118381352270,-0.763480603695,-1.33333134651,0.55140358399
1487138118392168421,-0.763480603695,-1.33333134651,0.55140370175
1487138118401308491,-0.763480603695,-1.33333134651,0.551403677507
1487138118413897640,-0.763480603695,-1.33333134651,0.551403576692
1487138118422107753,-0.763480603695,-1.33333134651,0.551403440267
1487138118429781158,-0.763480603695,-1.33333134651,0.551403290062
1487138118441343100,-0.763480603695,-1.33333134651,0.551403134641
1487138118454318540,-0.763480603695,-1.33333134651,0.551409065728
1487138118462987152,-0.763480603695,-1.33333134651,0.551409065853
1487138118475927967,-0.763480603696,-1.33333134651,0.551409066693
1487138118482166124,-0.763480603698,-1.33333134651,0.551409069754
1487138118492285110,-0.763480603705,-1.33333134651,0.55140907786
1487138118503698176,-0.763480603719,-1.33333134651,0.551409095516
1487138118510724249,-0.763480603745,-1.33333134651,0.551409129248
1487138118520299069,-0.763480603792,-1.33333134651,0.551409187896
1487138118533390550,-0.763480603868,-1.33333134651,0.55140928289
1487138118540756456,-0.763480603984,-1.33333134651,0.551409428482
1487138118555143935,-0.763480604154,-1.33333134651,0.551409641958
1487138118561475218,-0.763480604394,-1.33333134651,0.551409943821
1487138118572425952,-0.763480604724,-1.3333313465,0.551410357937
1487138118588414679,-0.763480605165,-1.3333313465,0.551410911675
1487138118594524461,-0.763480605742,-1.33333134649,0.551411636
1487138118603925656,-0.763480606482,-1.33333134649,0.55141256556
1487138118616075138,-0.763480607416,-1.33333134648,0.551413738742
1487138118626715706,-0.763480608578,-1.33333134647,0.551415197711
1487138118633416780,-0.763480610004,-1.33333134645,0.551416988421
1487138118640579770,-0.763480611733,-1.33333134644,0.55141916062
1487138118657687495,-0.76348061381,-1.33333134642,0.551421767826
1487138118663653028,-0.763480616278,-1.3333313464,0.551424867285
1487138118669905435,-0.763480619186,-1.33333134637,0.551428519927
1487138118681687377,-0.763480622587,-1.33333134634,0.551432790284
1487138118695841856,-0.763480626533,-1.3333313463,0.551437746419
1487138118704504094,-0.763480631083,-1.33333134626,0.551443459818
1487138118716039244,-0.763480636295,-1.33333134621,0.551450005288
1487138118730047057,-0.763480642232,-1.33333134616,0.551457460828
1487138118741715081,-0.763480648958,-1.3333313461,0.551465907503
1487138118754091689,-0.76348065654,-1.33333134603,0.551475429298
1487138118760982429,-0.763480665047,-1.33333134595,0.551486112964
1487138118772823120,-0.763480674551,-1.33333134586,0.551498047861
1487138118780805483,-0.763480685124,-1.33333134577,0.551511325784
1487138118794676296,-0.763480696841,-1.33333134566,0.551526040794
1487138118802992451,-0.76348070978,-1.33333134554,0.551542289026
1487138118810679398,-0.763480724017,-1.33333134541,0.551560168512
1487138118824892794,-0.763480739633,-1.33333134527,0.551579778975
1487138118831905909,-0.763480756707,-1.33333134511,0.551601221642
1487138118842927393,-0.763480775323,-1.33333134494,0.551624599035
1487138118855922291,-0.763480795561,-1.33333134475,0.551650014769
1487138118869015772,-0.763480817506,-1.33333134455,0.551677573342
1487138118884576499,-0.763480841241,-1.33333134434,0.551707379927
1487138118899411811,-0.76348086685,-1.3333313441,0.551739540158
1487138118909110547,-0.763480894417,-1.33333134385,0.55177415992
1487138118916559703,-0.763480924027,-1.33333134358,0.551811345133
1487138118926517397,-0.763480955765,-1.33333134329,0.551851201538
1487138118939148295,-0.763480989713,-1.33333134298,0.551893834488
1487138118955311897,-0.763481025956,-1.33333134264,0.551939348732
1487138118966805589,-0.763481064576,-1.33333134229,0.551987848204
1487138118981157401,-0.763481105655,-1.33333134191,0.552039435816
1487138118992826343,-0.763481149274,-1.33333134152,0.55209421325
1487138119000148040,-0.763481195512,-1.33333134109,0.552152280753
1487138119010558192,-0.763481244449,-1.33333134064,0.552213736933
1487138119020100470,-0.763481296162,-1.33333134017,0.552278678565
1487138119033665658,-0.763481350726,-1.33333133967,0.552347200394
1487138119036379030,-0.763481408214,-1.33333133914,0.552419394941
1487138119047826013,-0.763481468698,-1.33333133859,0.552495352321
1487138119065034405,-0.763481532248,-1.33333133801,0.552575160056
1487138119073587892,-0.763481598932,-1.3333313374,0.552658902901
1487138119089584202,-0.763481668815,-1.33333133676,0.552746662669
1487138119094495987,-0.763481741959,-1.33333133609,0.552838518065
1487138119103381682,-0.763481818424,-1.33333133539,0.552934544522
1487138119114372958,-0.763481898268,-1.33333133466,0.553034814048
1487138119119631242,-0.763481981545,-1.33333133389,0.553139395074
1487138119128963145,-0.763482068307,-1.3333313331,0.553248352309
1487138119140248546,-0.763482158602,-1.33333133227,0.553361746606
1487138119151103905,-0.763482252476,-1.33333133141,0.553479634826
1487138119160895724,-0.76348234997,-1.33333133052,0.553602069715
1487138119171247376,-0.763482451123,-1.33333132959,0.55372909979
1487138119181241736,-0.763482555971,-1.33333132863,0.553860769221
1487138119191819221,-0.763482664544,-1.33333132764,0.553997117735
1487138119207906698,-0.763482776872,-1.33333132661,0.554138180511
1487138119214038272,-0.763482892977,-1.33333132555,0.554283988097
1487138119232144246,-0.763483012882,-1.33333132445,0.554434566326
1487138119232212329,-0.763483136602,-1.33333132331,0.554589936238
1487138119239920985,-0.76348326415,-1.33333132215,0.554750114017
1487138119246445767,-0.763483395536,-1.33333132094,0.554915110926
1487138119265855697,-0.763483530765,-1.3333313197,0.555084933261
1487138119276873348,-0.763483669837,-1.33333131843,0.555259582299
1487138119291851409,-0.763483812749,-1.33333131712,0.555439054264
1487138119296346195,-0.763483959495,-1.33333131578,0.5556233403
1487138119309870300,-0.763484110063,-1.3333313144,0.55581242644
1487138119321000950,-0.763484264438,-1.33333131298,0.556006293599
1487138119332495059,-0.763484422601,-1.33333131154,0.556204917565
1487138119345462957,-0.763484584528,-1.33333131005,0.556408268996
1487138119357127523,-0.763484750193,-1.33333130854,0.556616313429
1487138119366545259,-0.763484919563,-1.33333130698,0.556829011294
1487138119381908821,-0.763485092603,-1.3333313054,0.55704631794
1487138119387897895,-0.763485269273,-1.33333130378,0.557268183658
1487138119399045754,-0.76348544953,-1.33333130213,0.557494553722
1487138119408926323,-0.763485633326,-1.33333130045,0.55772536843
1487138119417909977,-0.738133966923,-1.35712647438,0.564172685146
1487138119427922671,-0.738133966926,-1.35712647438,0.564172685149
1487138119438331822,-0.738133967025,-1.35712647428,0.564172685224
1487138119455666422,-0.738133967687,-1.35712647366,0.564172685731
1487138119467532488,-0.7381339701,-1.3571264714,0.564172687579
1487138119472394273,-0.738133976488,-1.35712646541,0.564172692471
1487138119485022754,-0.738133990404,-1.35712645236,0.564172703127
1487138119494656324,-0.738134016989,-1.35712642743,0.564172723484
1487138119509133553,-0.738134063213,-1.35712638407,0.56417275888
1487138119516674584,-0.738134138082,-1.35712631386,0.56417281621
1487138119535275390,-0.73813425283,-1.35712620624,0.564172904078
1487138119541872422,-0.738134421082,-1.35712604845,0.564173032915
1487138119556384943,-0.738134658994,-1.35712582532,0.564173215094
1487138119560642353,-0.73813498538,-1.35712551922,0.564173465021
1487138119568220259,-0.738135421807,-1.35712510992,0.564173799212
1487138119580160700,-0.738135992683,-1.35712457452,0.564174236356
1487138119587838772,-0.738136725314,-1.35712388742,0.564174797362
1487138119598440715,-0.738137649957,-1.35712302024,0.5641755054
1487138119612288445,-0.738138799841,-1.35712194182,0.564176385914
1487138119617672354,-0.738140211187,-1.35712061819,0.564177466641
1487138119635199995,-0.738141923203,-1.35711901257,0.564178777603
1487138119646855478,-0.738143978069,-1.35711708542,0.5641803511
1487138119653372261,-0.738146420904,-1.3571147944,0.564182221681
1487138119665049077,-0.738149299728,-1.35711209449,0.564184426117
1487138119673206315,-0.738152665406,-1.35710893799,0.564187003357
1487138119682673635,-0.738156571577,-1.35710527458,0.564189994476
1487138119696361157,-0.738161074585,-1.35710105143,0.564193442617
1487138119705184769,-0.738166233389,-1.35709621324,0.564197392929
1487138119714137048,-0.738172109463,-1.35709070235,0.564201892485
1487138119721361329,-0.7381787667,-1.35708445886,0.56420699021
1487138119728903568,-0.73818627129,-1.35707742067,0.564212736788
1487138119741116883,-0.738194691608,-1.35706952366,0.564219184578
1487138119755645696,-0.738204098082,-1.35706070179,0.564226387508
1487138119760432564,-0.738214563061,-1.3570508872,0.56423440098
1487138119771235715,-0.738226160677,-1.35704001036,0.56424328176
1487138119778599537,-0.738238966701,-1.35702800021,0.564253087868
1487138119793647182,-0.738253058395,-1.3570147843,0.564263878468
1487138119804994208,-0.738268514357,-1.35700028891,0.564275713744
1487138119816291900,-0.738285414368,-1.35698443921,0.564288654789
1487138119825542136,-0.73830383923,-1.35696715943,0.564302763477
1487138119836858453,-0.738323870609,-1.35694837298,0.564318102341
1487138119842834236,-0.738345590863,-1.35692800262,0.564334734449
1487138119848032395,-0.738369082886,-1.3569059706,0.564352723272
1487138119863754622,-0.738394429931,-1.35688219884,0.564372132565
1487138119871294028,-0.738421715453,-1.35685660908,0.56439302623
1487138119880715931,-0.738451022931,-1.35682912303,0.564415468192
1487138119890661042,-0.738482435706,-1.35679966252,0.564439522268
1487138119907822059,-0.738516036812,-1.35676814968,0.564465252039
1487138119915829630,-0.738551908805,-1.35673450709,0.564492720725
1487138119927795446,-0.738590133602,-1.35669865792,0.56452199105
1487138119934017312,-0.738630792313,-1.3566605261,0.564553125126
1487138119941248135,-0.738673965078,-1.35662003647,0.564586184317
1487138119953026243,-0.738719730906,-1.35657711493,0.564621229126
1487138119960710440,-0.738768167516,-1.3565316886,0.564658319064
1487138119969272511,-0.738819351181,-1.35648368593,0.564697512536
1487138119982802075,-0.738873356573,-1.35643303691,0.564738866723
1487138119988134151,-0.738930256613,-1.35637967314,0.564782437463
1487138120001354131,-0.738990122325,-1.35632352801,0.564828279142
1487138120009184578,-0.739053022689,-1.35626453683,0.564876444582
1487138120022249476,-0.739119024505,-1.35620263695,0.564926984932
1487138120029125008,-0.739188192253,-1.35613776789,0.56497994957
1487138120039316160,-0.739260587965,-1.35606987148,0.565035385994
1487138120052492224,-0.739336271094,-1.35599889197,0.56509333973
1487138120061967252,-0.739415298392,-1.35592477612,0.565153854237
1487138120089409587,-0.739497723793,-1.35584747336,0.565216970813
1487138120089518212,-0.739583598297,-1.35576693585,0.565282728513
1487138120089583295,-0.739672969865,-1.35568311862,0.56535116406
1487138120104490440,-0.739765883313,-1.35559597963,0.565422311773
1487138120134533897,-0.739862380212,-1.35550547989,0.565496203484
1487138120165255561,-0.7399624988,-1.35541158355,0.565572868474
1487138120191245856,-0.740066273891,-1.35531425795,0.565652333402
1487138120220185189,-0.740173736794,-1.35521347374,0.565734622241
1487138120254285598,-0.740284915237,-1.3551092049,0.565819756224
1487138120285130137,-0.740399833295,-1.35500142886,0.565907753788
1487138120308868561,-0.740518511328,-1.35489012652,0.565998630522
1487138120331729194,-0.74064096592,-1.35477528232,0.566092399125
1487138120343171719,-0.740767209825,-1.35465688432,0.566189069363
1487138120352337831,-0.740897251921,-1.35453492418,0.566288648036
1487138120360834402,-0.741031097169,-1.35440939724,0.566391138941
1487138120369087057,-0.741168746576,-1.35428030258,0.56649654285
1487138120381836080,-0.741310197167,-1.35414764296,0.566604857485
1487138120389083570,-0.741455441959,-1.35401142495,0.566716077499
1487138120402145467,-0.741604469947,-1.35387165886,0.566830194465
1487138120412402578,-0.741757266088,-1.35372835881,0.566947196863
1487138120422977187,-0.741913811299,-1.35358154268,0.567067070081
1487138120433594880,-0.742074082454,-1.35343123217,0.567189796411
1487138120438265832,-0.742238052391,-1.35327745275,0.567315355053
1487138120450414856,-0.742405689924,-1.35312023368,0.567443722128
1487138120461493465,-0.74257695986,-1.35295960795,0.567574870685
1487138120470666910,-0.742751823021,-1.3527956123,0.567708770727
1487138120480600437,-0.742930236274,-1.3526282872,0.567845389223
1487138120497336829,-0.743112152566,-1.35245767677,0.567984690143
1487138120506770274,-0.743297520961,-1.35228382877,0.568126634483
1487138120512165350,-0.743486286686,-1.35210679458,0.568271180303
1487138120520179130,-0.743678391184,-1.35192662912,0.568418282761
1487138120533013028,-0.743873772165,-1.35174339081,0.56856789416
1487138120545984967,-0.744072363671,-1.3515571415,0.568719963993
1487138120556443577,-0.744274096137,-1.35136794643,0.568874438993
1487138120564376066,-0.744478896468,-1.35117587416,0.569031263186
1487138120571319597,-0.744686688108,-1.35098099648,0.569190377951
1487138120582373706,-0.744897391123,-1.35078338836,0.569351722079
1487138120591489735,-0.745110922286,-1.35058312786,0.56951523184
1487138120599808181,-0.745327195165,-1.35038029604,0.569680841048
1487138120612254996,-0.745546120216,-1.35017497687,0.569848481138
1487138120619798152,-0.745767604881,-1.34996725716,0.570018081233
1487138120630765053,-0.745991553688,-1.34975722644,0.570189568227
1487138120641017913,-0.74621786836,-1.3495449769,0.570362866864
1487138120652648938,-0.746446447918,-1.34933060322,0.570537899822
1487138120665036336,-0.7466771888,-1.34911420254,0.570714587798
1487138120677001944,-0.746909984971,-1.3488958743,0.570892849598
1487138120683515726,-0.747144728044,-1.34867572015,0.571072602225
1487138120691924423,-0.747381307407,-1.34845384383,0.571253760978
1487138120699570411,-0.747619610338,-1.34823035106,0.571436239544
1487138120710639520,-0.747859522143,-1.34800534939,0.571619950094
1487138120720932172,-0.74810092628,-1.34777894814,0.571804803388
1487138120729167119,-0.748343704494,-1.3475512582,0.571990708874
1487138120742160475,-0.74858773695,-1.34732239196,0.57217757479
1487138120753115459,-0.748832902373,-1.34709246316,0.572365308271
1487138120765587232,-0.749079078186,-1.34686158675,0.572553815453
1487138120775314593,-0.749326140648,-1.3466298788,0.572743001584
1487138120783074749,-0.749573964998,-1.3463974563,0.57293277113
1487138120792509068,-0.7498224256,-1.34616443709,0.573123027885
1487138120801275056,-0.750071396083,-1.34593093967,0.573313675082
1487138120814497412,-0.750320749491,-1.34569708312,0.573504615506
1487138120829527890,-0.750570358425,-1.34546298692,0.573695751603
1487138120864643714,-0.750820095192,-1.34522877082,0.573886985594
1487138120891494175,-0.751069831954,-1.34499455471,0.574078219587
1487138120923384962,-0.751319440871,-1.34476045849,0.574269355691
1487138120953012419,-0.75156879425,-1.34452660193,0.574460296125
1487138120986667995,-0.751817764693,-1.34429310448,0.574650943337
1487138121019507740,-0.752066225243,-1.34406008523,0.57484120011
1487138121044875578,-0.752314049531,-1.34382766269,0.575030969678
1487138121073633494,-0.752561111918,-1.34359595469,0.575220155835
1487138121107988778,-0.752807287644,-1.34336507822,0.575408663048
1487138121137024319,-0.753052452969,-1.34313514936,0.575596396564
1487138121165621736,-0.753296485314,-1.34290628304,0.575783262519
1487138121194390611,-0.753539263404,-1.34267859302,0.575969168049
1487138121223192778,-0.753780667406,-1.34245219167,0.576154021393
1487138121255534023,-0.754020579062,-1.3422271899,0.576337731996
1487138121263422928,-0.754258881833,-1.34200369702,0.576520210619
1487138121274009162,-0.754495461021,-1.34178182058,0.576701369435
1487138121287926559,-0.754730203907,-1.3415616663,0.576881122131
1487138121295418340,-0.754962999876,-1.34134333792,0.577059384003
1487138121305140367,-0.755193740542,-1.3411269371,0.577236072058
1487138121318416890,-0.755422319871,-1.34091256326,0.5774111051
1487138121333831784,-0.755648634298,-1.34070031355,0.577584403827
1487138121333900076,-0.755872582846,-1.34049028266,0.577755890916
1487138121348971971,-0.756094067236,-1.34028256276,0.577925491112
1487138121356916876,-0.756312991996,-1.3400772434,0.578093131309
1487138121368009693,-0.756529264568,-1.33987441136,0.578258740632
1487138121381026966,-0.756742795407,-1.33967415064,0.578422250513
1487138121393969239,-0.756953498081,-1.3394765423,0.578583594768
1487138121405952555,-0.757161289362,-1.33928166438,0.578742709667
1487138121416926789,-0.757366089316,-1.33908959185,0.578899534002
1487138121426978774,-0.757567821388,-1.33890039652,0.579054009151
1487138121441002171,-0.757766412478,-1.33871414693,0.579206079141
1487138121452260571,-0.757961793025,-1.33853090832,0.579355690706
1487138121461289349,-0.758153897067,-1.33835074256,0.579502793337
1487138121470727752,-0.758342662317,-1.33817370805,0.579647339339
1487138121474290206,-0.758528030214,-1.33799985972,0.57978928387
1487138121482706610,-0.758709945985,-1.33782924894,0.57992858499
1487138121495009009,-0.758888358695,-1.33766192348,0.580065203696
1487138121504169746,-0.759063221289,-1.33749792746,0.580199103957
1487138121514345106,-0.759234490633,-1.33733730133,0.580330252744
1487138121522292928,-0.759402127549,-1.33718008185,0.580458620059
1487138121535936616,-0.759566096842,-1.33702630201,0.580584178952
1487138121543943396,-0.759726367327,-1.33687599106,0.580706905544
1487138121551793593,-0.75988291184,-1.33672917447,0.580826779036
1487138121563821576,-0.760035707255,-1.33658587394,0.580943781721
1487138121572523813,-0.760184734486,-1.33644610735,0.581057898984
1487138121585036087,-0.760329978492,-1.33630988883,0.581169119309
1487138121593738949,-0.760471428265,-1.33617722868,0.581277434268
1487138121602377478,-0.760609076821,-1.33604813345,0.581382838515
1487138121615530501,-0.760742921185,-1.33592260594,0.581485329773
1487138121622966907,-0.760872962362,-1.3358006452,0.581584908811
1487138121635260597,-0.760999205312,-1.33568224658,0.581681579431
1487138121647314163,-0.761121658913,-1.33556740175,0.58177534843
1487138121657093107,-0.761240335917,-1.33545609874,0.581866225577
1487138121663377390,-0.761355252907,-1.33534832201,0.581954223569
1487138121675279414,-0.761466430241,-1.33524405245,0.582039357998
1487138121683255986,-0.761573891993,-1.3351432675,0.5821216473
1487138121694878553,-0.761677665891,-1.33504594113,0.582201112708
1487138121702312459,-0.761777783242,-1.334952044,0.582277778196
1487138121713906317,-0.761874278858,-1.33486154345,0.582351670425
1487138121728824170,-0.761967190976,-1.33477440361,0.582422818675
1487138121743492441,-0.762056561166,-1.3346905855,0.582491254779
1487138121752788177,-0.762142434242,-1.33461004708,0.582557013055
1487138121764256369,-0.762224858164,-1.33453274338,0.58262013023
1487138121773841188,-0.762303883929,-1.33445862656,0.582680645357
1487138121784060048,-0.762379565471,-1.33438764605,0.582738599735
1487138121793422868,-0.76245195954,-1.3343197486,0.582794036824
1487138121806393433,-0.762521125587,-1.33425487848,0.582847002149
1487138121813196840,-0.762587125643,-1.33419297749,0.582897543212
1487138121823904574,-0.762650024185,-1.33413398516,0.582945709388
1487138121833133144,-0.762709888012,-1.33407783886,0.582991551828
1487138121845908001,-0.762766786102,-1.33402447387,0.583035123356
1487138121860739062,-0.762820789478,-1.33397382359,0.583076478357
1487138121868221218,-0.762871971057,-1.33392581963,0.583115672671
1487138121876689248,-0.762920405511,-1.33388039196,0.583152763478
1487138121890112395,-0.76296616911,-1.33383746905,0.583187809184
1487138121894841013,-0.763009339571,-1.333796978,0.583220869303
1487138121904814457,-0.763049995901,-1.33375884471,0.583252004335
1487138121915008400,-0.763088218238,-1.33372299402,0.583281275648
1487138121923772471,-0.76312408769,-1.33368934987,0.583308745352
1487138121934709955,-0.76315768617,-1.33365783543,0.583334476174
1487138121946561771,-0.763189096233,-1.33362837326,0.583358531334
1487138121960351710,-0.763218400911,-1.3336008855,0.583380974413
1487138121977023436,-0.763245683541,-1.33357529399,0.583401869229
1487138121984669341,-0.763271027602,-1.33355152042,0.583421279708
1487138121994546994,-0.763294516543,-1.33352948653,0.583439269754
1487138122005419644,-0.763316233618,-1.33350911424,0.583455903121
1487138122019594541,-0.763336261716,-1.33349032581,0.583471243281
1487138122027400029,-0.763354683193,-1.33347304399,0.583485353304
1487138122036063183,-0.763371579712,-1.3334571922,0.583498295722
1487138122042431507,-0.763387032071,-1.33344269465,0.583510132412
1487138122052838742,-0.76340112005,-1.33342947652,0.583520924466
1487138122063989435,-0.763413922243,-1.33341746409,0.58353073207
1487138122075087210,-0.763425515908,-1.3334065849,0.583539614388
1487138122082195950,-0.763435976815,-1.33339676789,0.583547629441
1487138122094333682,-0.763445379091,-1.33338794353,0.583554833997
1487138122103869835,-0.763453795082,-1.33338004397,0.583561283457
1487138122113079988,-0.763461295214,-1.33337300315,0.583567031752
1487138122123078766,-0.763467947857,-1.33336675695,0.583572131239
1487138122132754835,-0.763473819198,-1.33336124328,0.583576632606
1487138122143111112,-0.763478973126,-1.33335640224,0.583580584777
1487138122158178465,-0.763483471112,-1.33335217615,0.583584034828
1487138122169130157,-0.763487372112,-1.33334850972,0.583587027906
1487138122178370561,-0.763490732463,-1.33334535012,0.583589607156
1487138122190918459,-0.763493605803,-1.33334264703,0.583591813655
1487138122195421952,-0.763496042993,-1.33334035274,0.583593686353
1487138122203539066,-0.763498092047,-1.33333842222,0.583595262019
1487138122215009174,-0.763499798082,-1.33333681316,0.583596575207
1487138122223759786,-0.763501203272,-1.33333548598,0.583597658216
1487138122237278225,-0.763502346821,-1.33333440393,0.583598541069
1487138122244704298,-0.763503264946,-1.33333353302,0.583599251503
1487138122256509406,-0.763503990872,-1.33333284209,0.583599814965
1487138122263903812,-0.76350455485,-1.33333230276,0.583600254625
1487138122279055831,-0.763504984183,-1.33333188942,0.583600591393
1487138122291040397,-0.763505303272,-1.33333157918,0.583600843959
1487138122296934014,-0.763505533681,-1.3333313518,0.583601028841
1487138122306256250,-0.763505694218,-1.33333118965,0.583601160444
1487138122313826323,-0.763505801034,-1.33333107757,0.583601251143
1487138122324735348,-0.763505867749,-1.33333100277,0.583601311372
1487138122335421583,-0.763505905592,-1.33333095472,0.583601349732
1487138122343551405,-0.763505923563,-1.33333092496,0.583601373123
1487138122353201724,-0.763505928626,-1.33333090697,0.583601386882
1487138122365513956,-0.763505925918,-1.33333089591,0.583601394946
1487138122376477232,-0.763505918985,-1.33333088846,0.583601400039
1487138122388002840,-0.763505910045,-1.33333088252,0.583601403863
1487138122398796408,-0.76350590028,-1.33333087697,0.583601407329
1487138122411626598,-0.763505890152,-1.33333087138,0.583601410797
1487138122420381668,-0.763505890152,-1.33333087138,0.583601410797
1487138122455894950,-0.763505890152,-1.33333087138,0.583601410797
1487138122455969950,-0.763505890152,-1.33333087138,0.583601410797
1487138122461188151,-0.763505890152,-1.33333087138,0.583601410797
1487138122470888095,-0.763505890152,-1.33333087138,0.583601410797
1487138122487144530,-0.763505890152,-1.33333087138,0.583601410797
1487138122494441394,-0.763505890152,-1.33333087138,0.583601410797
1487138122499164387,-0.763505890152,-1.33333087138,0.583601410797
1487138122513202325,-0.763505890152,-1.33333087138,0.583601410797
1487138122517316611,-0.763505890152,-1.33333087138,0.583601410797
1487138122528532012,-0.763505890152,-1.33333087138,0.583601410797
1487138122540710077,-0.763505890152,-1.33333087138,0.583601410797
1487138122550262022,-0.763505890152,-1.33333087138,0.583601410797
1487138122560138382,-0.763505890152,-1.33333087138,0.583601410797
1487138122575024777,-0.763505890152,-1.33333087138,0.583601410797
1487138122582315059,-0.763505890152,-1.33333087138,0.583601410797
1487138122593267709,-0.763505890152,-1.33333087138,0.583601410797
1487138122604250652,-0.763505890152,-1.33333087138,0.583601410797
1487138122613720471,-0.763505890152,-1.33333087138,0.583601410797
1487138122626555286,-0.763505890152,-1.33333087138,0.583601410797
1487138122637452479,-0.763505890152,-1.33333087138,0.583601410797
1487138122645338092,-0.763505890152,-1.33333087138,0.583601410797
1487138122655599494,-0.763505890152,-1.33333087138,0.583601410797
1487138122665526313,-0.763505890152,-1.33333087138,0.583601410797
1487138122676358464,-0.763505890152,-1.33333087138,0.583601410797
1487138122688971779,-0.763505890152,-1.33333087138,0.583601410797
1487138122701692719,-0.763505890152,-1.33333087138,0.583601410797
1487138122706090379,-0.763505890152,-1.33333087138,0.583601410797
1487138122716032198,-0.763505890152,-1.33333087138,0.583601410797
1487138122730069511,-0.763505890152,-1.33333087138,0.583601410797
1487138122738765624,-0.763505890152,-1.33333087138,0.583601410797
1487138122745763780,-0.763505890152,-1.33333087138,0.583601410797
1487138122757284847,-0.763505890152,-1.33333087138,0.583601410797
1487138122771158202,-0.763505890152,-1.33333087138,0.583601410797
1487138122781182312,-0.763505890152,-1.33333087138,0.583601410797
1487138122787675803,-0.763505890152,-1.33333087138,0.583601410797
1487138122795640416,-0.763505890152,-1.33333087138,0.583601410797
1487138122805126944,-0.763505890152,-1.33333087138,0.583601410797
1487138122823178293,-0.763505890152,-1.33333087138,0.583601410797
1487138122835612900,-0.763505890152,-1.33333087138,0.583601410797
1487138122846645801,-0.763505890152,-1.33333087138,0.583601410797
1487138122859997198,-0.763505890152,-1.33333087138,0.583601410797
1487138122869478434,-0.763505890152,-1.33333087138,0.583601410797
1487138122875680842,-0.763505890152,-1.33333087138,0.583601410797
1487138122894395898,-0.763505890152,-1.33333087138,0.583601410797
1487138122897777143,-0.763505890152,-1.33333087138,0.583601410797
1487138122905515840,-0.763505890152,-1.33333087138,0.583601410797
1487138122918997487,-0.763505890152,-1.33333087138,0.583601410797
1487138122925389645,-0.763505890152,-1.33333087138,0.583601410797
1487138122938863250,-0.763505890152,-1.33333087138,0.583601410797
1487138122945468491,-0.763505890152,-1.33333087138,0.583601410797
1487138122958502889,-0.763505890152,-1.33333087138,0.583601410797
1487138122971171287,-0.763505890152,-1.33333087138,0.583601410797
1487138122988980928,-0.722742378712,-1.32486045361,0.568171918392
1487138122989038011,-0.722742417958,-1.32486062781,0.568171936883
1487138123004301864,-0.722742692113,-1.32486184183,0.568172065873
1487138123009679648,-0.722743434508,-1.32486512066,0.568172414645
1487138123022364004,-0.722744876761,-1.32487147316,0.568173091154
1487138123029971327,-0.722747248775,-1.32488189219,0.568174202038
1487138123040712728,-0.722750778745,-1.32489735459,0.56817585262
1487138123047353926,-0.722755693154,-1.32491882137,0.568178146914
1487138123059432409,-0.722762216779,-1.32494723767,0.568181187632
1487138123066023566,-0.722770572693,-1.32498353291,0.568185076188
1487138123079313463,-0.722780982269,-1.32502862086,0.568189912702
1487138123089494074,-0.722793665177,-1.32508339964,0.568195796007
1487138123096638355,-0.722808839392,-1.32514875191,0.568202823656
1487138123109311337,-0.722826721192,-1.32522554484,0.568211091923
1487138123119842863,-0.722847525163,-1.32531463023,0.568220695812
1487138123127471144,-0.722871464202,-1.32541684459,0.568231729062
1487138123137117546,-0.722898749514,-1.32553300921,0.568244284148
1487138123150915943,-0.722929590621,-1.3256639302,0.568258452295
1487138123163937008,-0.722964195359,-1.32581039861,0.568274323473
1487138123167257711,-0.723002769885,-1.32597319047,0.56829198641
1487138123177625446,-0.723045518674,-1.32615306691,0.568311528596
1487138123194270630,-0.723092644527,-1.32635077415,0.568333036285
1487138123197259959,-0.723144348567,-1.32656704368,0.568356594503
1487138123208260860,-0.723200830246,-1.32680259223,0.568382287054
1487138123217117305,-0.723262287347,-1.32705812193,0.568410196522
1487138123229629829,-0.723328915984,-1.32733432033,0.56844040428
1487138123239931189,-0.723400910605,-1.32763186048,0.568472990494
1487138123245567181,-0.723478463996,-1.32795140104,0.568508034127
1487138123259855410,-0.723561767279,-1.32829358631,0.568545612948
1487138123273379224,-0.723651009921,-1.32865904632,0.568585803532
1487138123289622784,-0.723746379731,-1.32904839691,0.56862868127
1487138123291773531,-0.723848062862,-1.32946223982,0.568674320371
1487138123303232972,-0.723956243818,-1.3299011627,0.568722793872
1487138123312635875,-0.72407110545,-1.33036573926,0.568774173636
1487138123321384321,-0.724192828965,-1.33085652929,0.568828530366
1487138123333326054,-0.724321593923,-1.33137407878,0.568885933602
1487138123340776960,-0.72445757824,-1.33191891994,0.568946451732
1487138123348843490,-0.724600958194,-1.33249157132,0.569010151997
1487138123363397135,-0.724751908422,-1.33309253785,0.569077100493
1487138123367330380,-0.724910601928,-1.33372231095,0.569147362179
1487138123380642944,-0.72507721008,-1.33438136856,0.56922100088
1487138123385088979,-0.725251902614,-1.33507017526,0.569298079298
1487138123395265464,-0.725434847638,-1.3357891823,0.569378659009
1487138123405616407,-0.725626211634,-1.3365388277,0.569462800475
1487138123417288640,-0.725826159457,-1.33731953633,0.569550563047
1487138123424552422,-0.726034854342,-1.33813171996,0.569642004969
1487138123435978530,-0.7262524579,-1.33897577734,0.569737183387
1487138123446861848,-0.726479130129,-1.33985209429,0.569836154349
1487138123458019748,-0.726715029408,-1.34076104377,0.569938972815
1487138123466275070,-0.726960312504,-1.34170298593,0.570045692662
1487138123479796633,-0.727215134572,-1.34267826821,0.570156366685
1487138123491970574,-0.72747964916,-1.34368722539,0.570271046609
1487138123500519645,-0.727754008207,-1.34473017971,0.570389783087
1487138123511466212,-0.728038362051,-1.34580744088,0.570512625712
1487138123522940154,-0.728332859425,-1.3469193062,0.570639623018
1487138123535442844,-0.728637647464,-1.34806606062,0.570770822487
1487138123543630374,-0.728952871705,-1.3492479768,0.570906270555
1487138123561765514,-0.729278676089,-1.35046531522,0.571046012615
1487138123571415375,-0.729615202966,-1.35171832421,0.571190093024
1487138123576396035,-0.729962593095,-1.35300724006,0.571338555109
1487138123586778145,-0.730320985646,-1.35433228705,0.571491441171
1487138123601310666,-0.730690518202,-1.3556936776,0.57164879249
1487138123609010654,-0.731071326765,-1.35709161225,0.571810649334
1487138123621516886,-0.731463545753,-1.3585262798,0.571977050958
1487138123629994291,-0.731867308005,-1.35999785737,0.572148035614
1487138123638067904,-0.732282744786,-1.36150651044,0.572323640556
1487138123651121385,-0.732709985782,-1.36305239299,0.572503902045
1487138123660116539,-0.733149159109,-1.3646356475,0.572688855351
1487138123679655885,-0.733600391314,-1.36625640507,0.572878534764
1487138123697782026,-0.734063807373,-1.36791478549,0.573072973595
1487138123718330246,-0.734539530699,-1.36961089729,0.573272204184
1487138123739132257,-0.73502768314,-1.37134483785,0.573476257904
1487138123754158152,-0.735528384985,-1.37311669344,0.573685165165
1487138123775468788,-0.736041754963,-1.3749265393,0.573898955424
1487138123793732387,-0.736567910245,-1.37677443974,0.574117657184
1487138123814584857,-0.737106966451,-1.37866044818,0.574341298004
1487138123822302679,-0.737659037646,-1.38058460724,0.574569904503
1487138123834320578,-0.738224236348,-1.38254694882,0.574803502365
1487138123844974854,-0.738802673526,-1.38454749417,0.575042116346
1487138123862193538,-0.739394458604,-1.38658625393,0.575285770276
1487138123867193030,-0.739999699464,-1.38866322826,0.575534487066
1487138123874995561,-0.740618502446,-1.3907784069,0.575788288716
1487138123882659133,-0.741250972353,-1.39293176919,0.576047196317
1487138123896801071,-0.741897212452,-1.39512328421,0.576311230055
1487138123905866058,-0.742557324475,-1.39735291084,0.576580409222
1487138123915247669,-0.743231408623,-1.39962059779,0.576854752216
1487138123925283529,-0.74391956357,-1.40192628374,0.57713427655
1487138123938177427,-0.744621886459,-1.40426989735,0.577418998854
1487138123944646960,-0.745338472912,-1.40665135739,0.577708934882
1487138123956155485,-0.746069417027,-1.40907057276,0.578004099519
1487138123965088222,-0.746814811382,-1.41152744261,0.578304506783
1487138123972380920,-0.747574747037,-1.41402185639,0.578610169834
1487138123983833695,-0.748349313536,-1.41655369394,0.578921100974
1487138123994070513,-0.749138598912,-1.41912282552,0.57923731166
1487138124005658496,-0.749942689685,-1.42172911195,0.579558812502
1487138124014602192,-0.750761670865,-1.42437240464,0.579885613273
1487138124024247469,-0.75159562596,-1.42705254566,0.580217722911
1487138124034808746,-0.752444636969,-1.42976936785,0.580555149528
1487138124042644484,-0.753308784391,-1.43252269485,0.580897900413
1487138124056619173,-0.754188147227,-1.4353123412,0.581245982036
1487138124066744699,-0.755082802978,-1.43813811243,0.581599400059
1487138124074929313,-0.755992827651,-1.44099980507,0.581958159332
1487138124085361506,-0.756918295761,-1.44389720681,0.58232226391
1487138124093144120,-0.757859280332,-1.44683009651,0.582691717046
1487138124103413646,-0.758815852897,-1.44979824429,0.583066521208
1487138124116379503,-0.759788083508,-1.45280141161,0.583446678074
1487138124125900655,-0.76077604073,-1.45583935134,0.583832188546
1487138124140478634,-0.761779791646,-1.45891180785,0.58422305275
1487138124149850787,-0.762799401863,-1.46201851705,0.584619270042
1487138124157282568,-0.763834935508,-1.46515920649,0.585020839015
1487138124165967306,-0.764886455234,-1.46833359543,0.585427757504
1487138124174049252,-0.765954022223,-1.4715413949,0.585840022591
1487138124183063739,-0.767037696187,-1.4747823078,0.586257630608
1487138124204585458,-0.768137535368,-1.47805602893,0.586680577148
1487138124204643750,-0.769253596543,-1.48136224512,0.587108857063
1487138124214703985,-0.770385935029,-1.48470063527,0.587542464477
1487138124225337470,-0.771534604677,-1.48807087041,0.587981392785
1487138124232190960,-0.772699657883,-1.49147261381,0.588425634663
1487138124242963111,-0.773881145586,-1.49490552103,0.588875182068
1487138124253961178,-0.775079117269,-1.49836924,0.589330026251
1487138124263430415,-0.776293620965,-1.5018634111,0.589790157754
1487138124272831651,-0.777524703256,-1.50538766723,0.590255566422
1487138124283630635,-0.778772409278,-1.50894163386,0.590726241403
1487138124292425789,-0.780036782722,-1.51252492914,0.59120217116
1487138124305120687,-0.781317865834,-1.51613716397,0.591683343467
1487138124325162408,-0.782615699422,-1.51977794205,0.592169745424
1487138124355337115,-0.783930322854,-1.52344685996,0.592661363457
1487138124383326116,-0.785261774064,-1.52714350725,0.593158183323
1487138124390738480,-0.786610089549,-1.53086746651,0.593660190117
1487138124414274529,-0.787975304379,-1.53461831341,0.594167368279
1487138124432401336,-0.789357452191,-1.53839561685,0.594679701594
1487138124454085263,-0.790756565196,-1.54219893893,0.595197173204
1487138124476941105,-0.792172674183,-1.54602783512,0.595719765608
1487138124494448871,-0.793605808515,-1.54988185428,0.59624746067
1487138124511116056,-0.795055996138,-1.55376053874,0.596780239624
1487138124530003862,-0.796523263578,-1.55766342438,0.597318083079
1487138124548147252,-0.798007635946,-1.56159004071,0.597860971023
1487138124569543221,-0.79950913694,-1.56553991095,0.598408882832
1487138124587950028,-0.801027788849,-1.56951255206,0.598961797272
1487138124598955845,-0.802563612549,-1.57350747488,0.599519692505
1487138124609356330,-0.804116627513,-1.57752418415,0.600082546095
1487138124619307607,-0.805686851809,-1.5815621786,0.600650335015
1487138124628315553,-0.807274302103,-1.58562095104,0.601223035646
1487138124638523704,-0.808878993662,-1.5896999884,0.601800623792
1487138124648459607,-0.810500940354,-1.59379877185,0.602383074677
1487138124662793836,-0.812140154653,-1.59791677683,0.602970362953
1487138124677272690,-0.813796647642,-1.60205347315,0.603562462709
1487138124684902429,-0.815470429009,-1.60620832505,0.60415934747
1487138124699085742,-0.81716150706,-1.61038079128,0.604760990207
1487138124704816108,-0.818869888708,-1.61457032518,0.605367363341
1487138124720382836,-0.820595579489,-1.61877637473,0.605978438746
1487138124720453961,-0.822338583552,-1.62299838266,0.60659418776
1487138124735297189,-0.824098903672,-1.6272357865,0.607214581185
1487138124738258560,-0.825876541242,-1.63148801864,0.607839589294
1487138124749123836,-0.827671496285,-1.63575450645,0.608469181836
1487138124759036446,-0.829483767448,-1.64003467231,0.609103328044
1487138124771272512,-0.831313352011,-1.64432793369,0.609741996636
1487138124779738041,-0.833160245884,-1.64863370325,0.610385155825
1487138124789526361,-0.835024443612,-1.65295138889,0.611032773319
1487138124803060924,-0.836905938379,-1.65728039383,0.611684816331
1487138124812445286,-0.838804722004,-1.66162011669,0.612341251583
1487138124821185981,-0.840720784951,-1.66596995155,0.61300204531
1487138124832022966,-0.842654116325,-1.67032928803,0.613667163267
1487138124839702580,-0.84460470388,-1.67469751138,0.614336570732
1487138124847033194,-0.846572534014,-1.67907400253,0.615010232515
1487138124858706844,-0.848557591778,-1.68345813817,0.615688112961
1487138124875060320,-0.850559860877,-1.68784929082,0.616370175954
1487138124885643180,-0.852579323668,-1.69224682894,0.617056384925
1487138124897109830,-0.854615961166,-1.69665011695,0.617746702857
1487138124911629184,-0.856669753047,-1.70105851533,0.61844109229
1487138124911807808,-0.858740677648,-1.70547138069,0.619139515323
1487138124920389546,-0.86082871197,-1.70988806586,0.619841933627
1487138124929245158,-0.86293383168,-1.71430791994,0.620548308441
1487138124938434562,-0.865056011113,-1.71873028839,0.621258600585
1487138124951134210,-0.867195223277,-1.72315451308,0.621972770461
1487138124958582407,-0.869351439851,-1.72757993239,0.622690778061
1487138124970180182,-0.871524631192,-1.73200588129,0.62341258297
1487138124977524547,-0.873714766332,-1.73643169137,0.624138144374
1487138124992743191,-0.875921812984,-1.74085669097,0.62486742106
1487138124999371598,-0.878145737543,-1.74528020521,0.62560037143
1487138125008715293,-0.880386505091,-1.74970155608,0.626336953497
1487138125019846235,-0.882644079392,-1.75412006251,0.627077124898
1487138125028868722,-0.884918422903,-1.75853504046,0.627820842895
1487138125041949412,-0.887209496772,-1.76294580297,0.628568064381
1487138125054277352,-0.889517260839,-1.76735166025,0.629318745885
1487138125057855055,-0.89184167364,-1.77175191974,0.630072843581
1487138125074830572,-0.894182692411,-1.77614588621,0.630830313288
1487138125077940776,-0.896540273087,-1.7805328618,0.631591110478
1487138125088150678,-0.898914370305,-1.78491214611,0.632355190282
1487138125103504072,-0.90130493741,-1.78928303628,0.633122507495
1487138125110831270,-0.903711926451,-1.79364482706,0.633893016579
1487138125119285674,-0.906135288188,-1.79799681087,0.634666671671
1487138125133448821,-0.908574972093,-1.80233827789,0.635443426589
1487138125143928180,-0.911030926351,-1.80666851614,0.636223234834
1487138125156816995,-0.913503097866,-1.81098681151,0.637006049597
1487138125167114814,-0.915991432257,-1.81529244791,0.637791823766
1487138125179188004,-0.918495873866,-1.81958470726,0.638580509929
1487138125184227830,-0.921016365758,-1.82386286963,0.639372060381
1487138125191191695,-0.923552849723,-1.82812621328,0.640166427128
1487138125200943723,-0.926105266281,-1.83237401473,0.640963561892
1487138125212444290,-0.928673554678,-1.83660554886,0.641763416119
1487138125217982948,-0.931257652894,-1.84082008896,0.642565940981
1487138125236983212,-0.933857497646,-1.84501690681,0.643371087385
1487138125244101202,-0.936473024385,-1.84919527277,0.644178805973
1487138125255815227,-0.939104167301,-1.85335445582,0.644989047135
1487138125268786625,-0.941750859328,-1.85749372368,0.645801761005
1487138125277956570,-0.94441303214,-1.86161234283,0.646616897476
1487138125292063299,-0.947090616159,-1.86570957862,0.647434406197
1487138125301353202,-0.949783540557,-1.86978469534,0.648254236585
1487138125313745768,-0.952491733252,-1.8738369563,0.649076337824
1487138125324795418,-0.955215120919,-1.87786562386,0.649900658877
1487138125334915945,-0.957953628986,-1.88186995956,0.650727148485
1487138125345420764,-0.960707181638,-1.88584922417,0.651555755179
1487138125355558749,-0.96347570182,-1.88980267775,0.652386427277
1487138125364595611,-0.96625911124,-1.89372957975,0.653219112898
1487138125372935182,-0.969057330369,-1.89762918908,0.654053759961
1487138125385903747,-0.971870278443,-1.90150076414,0.654890316195
1487138125404525636,-0.974697873469,-1.90534356297,0.655728729139
1487138125409941753,-0.977540032225,-1.90915684325,0.656568946154
1487138125415068038,-0.980396670261,-1.91293986243,0.657410914421
1487138125421208279,-0.983267701901,-1.91669187776,0.658254580952
1487138125428888518,-0.986153040251,-1.9204121464,0.659099892595
1487138125441220208,-0.989052597193,-1.92409992546,0.659946796034
1487138125452455733,-0.991966283393,-1.92775447213,0.660795237801
1487138125459197099,-0.994894008302,-1.93137504366,0.661645164279
1487138125469216917,-0.997835680157,-1.93496089752,0.662496521703
1487138125486009393,-1.00079120599,-1.93851129146,0.663349256173
1487138125490797511,-1.0037604916,-1.94202548352,0.664203313653
1487138125504491491,-1.00674344162,-1.94550273219,0.665058639981
1487138125514478269,-1.00973995945,-1.94894229642,0.66591518087
1487138125526293418,-1.0127499473,-1.95234343574,0.666772881916
1487138125537357652,-1.01577330616,-1.95570541029,0.667631688605
1487138125548818219,-1.01880993586,-1.95902748092,0.668491546313
1487138125560304952,-1.021859735,-1.96230890928,0.669352400316
1487138125567116234,-1.02492260101,-1.96554895783,0.670214195795
1487138125571383478,-1.02799843011,-1.96874689,0.671076877838
1487138125581233589,-1.03108711735,-1.9719019702,0.671940391448
1487138125588671078,-1.03418855659,-1.9750134639,0.672804681549
1487138125602795516,-1.0373026405,-1.97808063776,0.673669692991
1487138125613594083,-1.04042926057,-1.98110275962,0.674535370551
1487138125624008860,-1.04356830711,-1.98407909863,0.675401658945
1487138125634552386,-1.04671966926,-1.98700892531,0.67626850283
1487138125641614251,-1.04988323499,-1.98989151162,0.677135846808
1487138125649842489,-1.05305889108,-1.99272613105,0.678003635434
1487138125660293891,-1.05624652315,-1.99551205866,0.678871813221
1487138125671639749,-1.05944601565,-1.99824857119,0.679740324643
1487138125679571613,-1.06265725187,-2.0009349471,0.680609114142
1487138125690755888,-1.06588011394,-2.00357046669,0.681478126136
1487138125702133747,-1.06911448281,-2.00615441211,0.682347305017
1487138125711991524,-1.07236023829,-2.00868606749,0.683216595166
1487138125722261134,-1.07561725903,-2.01116471901,0.68408594095
1487138125733186618,-1.07888542252,-2.01358965491,0.684955286732
1487138125745133726,-1.0821646051,-2.01596016565,0.685824576873
1487138125753561672,-1.08545468197,-2.01827554394,0.686693755743
1487138125761926993,-1.08875552717,-2.02053508479,0.68756276772
1487138125771400563,-1.0920670136,-2.02273808564,0.688431557197
1487138125783520879,-1.09538901301,-2.02488384641,0.689300068592
1487138125790834827,-1.09872139603,-2.02697166953,0.690168246347
1487138125799182023,-1.10206403214,-2.0290008601,0.691036034937
1487138125813396044,-1.10541678967,-2.03097072588,0.691903378873
1487138125822674864,-1.10877953584,-2.03288057743,0.692770222712
1487138125831101352,-1.11215213672,-2.03472972813,0.693636511055
1487138125841190462,-1.11553445727,-2.03651749429,0.694502188559
1487138125855158108,-1.11892636131,-2.03824319521,0.695367199939
1487138125861873890,-1.12232771153,-2.03990615326,0.696231489975
