%time,field.x,field.y,field.z
1487138104758545175,0.000109634316797,-7.58913225627e-05,-0.000310402580133
1487138104772915820,0.000109634611542,-7.5911180896e-05,-0.000310473725369
1487138104781488350,-2.49085332711e-06,-5.02278153838e-05,-6.19795468264e-05
1487138104783928846,0.000150480854312,-9.09635417097e-05,-0.000358552562414
1487138104785736260,0.000369408736754,-0.000173974265889,-0.000855727880122
1487138104788658131,0.00045514363045,-0.00021868019271,-0.00112200442967
1487138104793628290,0.000526088435592,-0.00025845232809,-0.00145025222265
1487138104795398788,0.000537348470437,-0.00023693840792,-0.00142736387755
1487138104796115995,0.000605457677448,-0.000256836315721,-0.00179309522532
1487138104796716411,0.000606544726333,-0.000257534345751,-0.00178084585292
1487138104799109866,0.000662357168029,-0.000243266708557,-0.00208670320941
1487138104802468569,0.000720588234547,-0.000220172111899,-0.00235974417822
1487138104805649981,0.000805139767827,-0.000207698243818,-0.00268274845992
1487138104806699313,0.000787069087972,-0.000216241412733,-0.00263639691633
1487138104810407016,0.000926497597774,-0.000227969271236,-0.00307343756509
1487138104814102052,0.00105473486185,-0.000228940682101,-0.0034517487079
1487138104815590675,0.0010105900371,-0.000252089724026,-0.00341064346681
1487138104853058288,0.00113253332723,-0.000224901032148,-0.00378388443499
1487138104853150163,0.00127478137191,-0.000173826539464,-0.00424866807779
1487138104853229746,0.00126537858148,-0.000126692679733,-0.00411770816684
1487138104853279996,0.00134506705265,-9.60966401724e-05,-0.00440017645533
1487138104853340204,0.00142941221461,-6.39917102765e-05,-0.00474962227327
1487138104853402662,0.00150846999366,-3.96307614616e-05,-0.00507651391922
1487138104853471995,0.00144407908957,-1.97307499418e-05,-0.00487994547832
1487138104853528454,0.00153867902107,-1.21710485967e-05,-0.00524802387434
1487138104854100245,0.0016708497122,-2.70693244417e-05,-0.00571498371812
1487138104854171161,0.00174386742302,-4.96716332983e-05,-0.00596252652264
1487138104854250911,0.00167199117535,3.08803508032e-06,-0.00557741240691
1487138104854319536,0.00179490736336,-5.98881398917e-05,-0.00594257651801
1487138104893270771,0.00191944518171,-0.000100702820671,-0.00627721536571
1487138104893363854,0.00179267245797,-0.00010800625041,-0.00588873424015
1487138104893470521,0.001948281007,-9.97051177922e-05,-0.0062897346333
1487138104893542896,0.00206991546685,-5.61826552419e-05,-0.0065894813099
1487138104894160270,0.0019002908389,-7.73258661615e-05,-0.00621315009439
1487138104894228311,0.00201284521995,-3.7054698018e-05,-0.00650962630846
1487138104894288103,0.00216197936274,2.04138423044e-05,-0.00694897073515
1487138104894555978,0.00224493813356,5.14344990932e-05,-0.00720300902145
1487138104895806934,0.0020957900536,6.60139799093e-05,-0.00663251827223
1487138104895897434,0.00224149161409,8.42308416313e-05,-0.00709321980224
1487138104895954767,0.00239892363103,7.55008228706e-05,-0.00759239710425
1487138104896050517,0.00252660231568,3.85540161549e-05,-0.00794804809073
1487138104896120892,0.00233676801098,3.80989431995e-05,-0.00727302152587
1487138104896231808,0.00247529016376,-4.01724254601e-06,-0.00768917391201
1487138104934221045,0.00229330995549,-1.93757969688e-05,-0.00717557118631
1487138104934285170,0.00235277596599,-1.84698785776e-05,-0.00743618224095
1487138104934395128,0.00241121909799,1.21184863697e-05,-0.00775648595589
1487138104934494170,0.002455364478,4.97870137304e-05,-0.00807263453277
1487138104934549920,0.00249148371702,5.93572440279e-05,-0.00841488771124
1487138104934610711,0.00232185329302,0.000109947912398,-0.00766643183137
1487138104934731503,0.00235894320446,7.94401172639e-05,-0.00806486940115
1487138104935113127,0.00219801884595,8.6783126347e-05,-0.00753482413359
1487138104935167544,0.00224372169151,5.42444351277e-05,-0.00787697879434
1487138104935242669,0.0022885676951,3.40854344099e-05,-0.00821196590886
1487138104935305502,0.00232499264683,3.59061866961e-05,-0.00854512656832
1487138104935358627,0.00215382793405,3.16896861894e-05,-0.00796635410719
1487138104935422793,0.00211722382689,4.76789837942e-05,-0.00849153803875
1487138104935472793,0.00209704931952,5.23649669826e-05,-0.00883020633268
1487138104939954662,0.00194372106155,6.95380824393e-05,-0.00821568487543
1487138104973349780,0.00195880689722,6.06110792467e-05,-0.0085140672881
1487138104973410155,0.00197696136122,5.81695128141e-05,-0.00876316680342
1487138104973485072,0.00199015200235,5.19306893803e-05,-0.00905908929423
1487138104973537071,0.00180044555095,3.35866576364e-05,-0.00847096243236
1487138104974092737,0.00181782120394,-1.9580918156e-05,-0.00892504260321
1487138104974411320,0.00183423974759,-4.94019942148e-05,-0.00918303011593
1487138104974466445,0.00169130689856,-4.68518061431e-05,-0.00861710601401
1487138104974519570,0.00171445198831,-7.95614563529e-05,-0.00894849491476
1487138104974583737,0.00173575222472,-9.49110061295e-05,-0.00926170871054
1487138104974643487,0.00161379327276,-8.15433800663e-05,-0.00870798265505
1487138104974796945,0.00163584376605,-7.46272760566e-05,-0.00905168050957
1487138104974870403,0.00166391201724,-6.04260944743e-05,-0.00936554373021
1487138105013103889,0.00156690724198,-5.63855810088e-05,-0.00886341101251
1487138105013169972,0.00163446093067,-3.16218603078e-05,-0.00925478693392
1487138105013246264,0.00169111713868,-9.68023372371e-07,-0.00947887607003
1487138105013307764,0.00180046366988,7.66689461691e-05,-0.00993109067213
1487138105013441014,0.00168442399191,9.09401605367e-05,-0.00939631857928
1487138105013518264,0.00173811643802,0.000135872755383,-0.00970357205131
1487138105013600597,0.00181016846433,0.000169266462704,-0.0101175300806
1487138105013805930,0.00168473908571,0.000164180030887,-0.00962356253183
1487138105013900305,0.00178779668994,0.000165008139321,-0.0100831545318
1487138105013959555,0.00181696386043,0.000154903116801,-0.0102306447127
1487138105014011971,0.001728723701,0.000153680773127,-0.00973335342584
1487138105016009302,0.00177875646378,0.000118168008358,-0.0100334801851
1487138105016070093,0.00180308281618,6.87362684726e-05,-0.0103566388902
1487138105016122593,0.00181140626853,3.22569725246e-05,-0.0107103035186
1487138105053649039,0.00171228019937,3.53194694778e-05,-0.0101657061027
1487138105053740414,0.00172302821224,9.3723503467e-06,-0.0105386750513
1487138105053800164,0.00174695710923,-3.14072037555e-05,-0.0110130283006
1487138105053877330,0.00164583605493,-3.19156021772e-05,-0.0104800455287
1487138105054021997,0.0016922615809,-9.70566352931e-05,-0.0109898023734
1487138105054759704,0.00169941973665,-0.000106323801004,-0.0110764344677
1487138105054862620,0.00172413449556,-0.000160453469165,-0.0115106140044
1487138105054924870,0.00161575016274,-0.000154010024429,-0.0109357100658
1487138105054990037,0.00163225655332,-0.000195295490646,-0.0111794768234
1487138105055057787,0.00166852320413,-0.000246764751559,-0.011474622763
1487138105055128745,0.00171728318439,-0.000267677045084,-0.0117507691262
1487138105055190203,0.00156821688437,-0.000310950367183,-0.0111895230925
1487138105055246995,0.00159957827449,-0.000308634464403,-0.0113873742708
1487138105055340495,0.00163673883135,-0.000300611819972,-0.0117611587934
1487138105093140815,0.00154384602964,-0.000286352091249,-0.0111731418378
1487138105093206398,0.00162618459196,-0.000255312566246,-0.0119767000495
1487138105093258606,0.00162799905722,-0.00025507775568,-0.0119874478086
1487138105093394148,0.00170810474945,-0.000241567667931,-0.012391618759
1487138105093453148,0.00161202240194,-0.00023098614519,-0.0117896628819
1487138105093519398,0.00167645648857,-0.000186859331821,-0.0121737748624
1487138105093571856,0.00174861102333,-0.000122435579891,-0.0125971833524
1487138105093626064,0.00166135308805,-0.000105205173423,-0.0120056025985
1487138105093696772,0.00172267001597,-7.71245964057e-05,-0.012322061142
1487138105093764064,0.00179104032235,-8.23148903568e-05,-0.0126037162274
1487138105093839480,0.00186847163275,-0.000116392211677,-0.0128356840032
1487138105094109605,0.00175804903999,-0.000127696088327,-0.0122133844875
1487138105094170980,0.00188306305145,-0.000204817252971,-0.0125031202955
1487138105094331438,0.00199018810159,-0.000264326725931,-0.012743077417
1487138105133414048,0.00189947347378,-0.000250353913571,-0.0121396983268
1487138105133479048,0.00207922085454,-0.000209682049386,-0.0127747432766
1487138105133531673,0.00214570525426,-0.000178681113844,-0.0130582116642
1487138105133599965,0.00222184999872,-0.000124377833147,-0.013463221258
1487138105133696214,0.00231208270596,-6.16518549843e-05,-0.0138823555457
1487138105134060631,0.00241595233307,-1.69262720385e-05,-0.0142908389128
1487138105134120589,0.00228413921706,-4.44198906906e-06,-0.0134292996546
1487138105134193255,0.00240825884916,3.13958801941e-05,-0.0139146617302
1487138105134258964,0.00246755991276,4.13465574118e-05,-0.0141405852479
1487138105134428755,0.00233231141258,4.4649552455e-05,-0.0133609857543
1487138105135300129,0.00241256175207,4.93492418385e-05,-0.0137433593118
1487138105135405837,0.00245921337792,4.82258614003e-05,-0.0139996998796
1487138105137706042,0.00232691051348,5.59993227246e-05,-0.013279115817
1487138105139035748,0.00245979385942,8.18606480832e-05,-0.013812859573
1487138105179020899,0.0024887228186,8.84819923508e-05,-0.0139151768825
1487138105179099940,0.00255415493552,8.51289608974e-05,-0.0141610783974
1487138105179160732,0.00242561020851,8.26860103867e-05,-0.0133671477689
1487138105179215190,0.00254310992665,5.49695481258e-05,-0.0137658192534
1487138105179770398,0.00242865261616,6.25809477966e-05,-0.0130682386472
1487138105179880356,0.00264095655689,-8.43990561132e-05,-0.013808732564
1487138105179926272,0.00269245639676,-0.000125010918935,-0.0140234176293
1487138105180340897,0.00278896244242,-0.000189952814643,-0.0144036283825
1487138105180435022,0.00265510419144,-0.000183810451064,-0.0136063060667
1487138105180494938,0.00275883962324,-0.000243603032596,-0.0140005950049
1487138105180542272,0.00282884798513,-0.000259006177139,-0.0143373563486
1487138105181115562,0.00270082279413,-0.00024449347172,-0.0135455806814
1487138105181460770,0.00273104754832,-0.00022531397522,-0.0138414424198
1487138105218307300,0.00273578525074,-0.000194446826222,-0.0140782957128
1487138105218383967,0.00275120971128,-0.000166839850744,-0.0143223995615
1487138105218461550,0.0027886687665,-0.000124267640357,-0.0146884724801
1487138105218525966,0.00281954281816,-9.44234789095e-05,-0.0149601706115
1487138105218581175,0.00286592883167,-9.14635212914e-05,-0.0152068238599
1487138105218735258,0.0029575664981,-0.000125763342772,-0.0155216221598
1487138105218804008,0.00271927648994,-0.000133127085764,-0.0143367994989
1487138105218975466,0.00283494711206,-0.000177989438888,-0.0147122942673
1487138105219884631,0.0026656422175,-0.000165409380373,-0.0136957206396
1487138105220100131,0.00275182285145,-0.000179770566964,-0.0139788202018
1487138105220275297,0.00285552150696,-0.000170118554313,-0.0142713244243
1487138105220334631,0.00298111463044,-0.000140677939156,-0.0145404818588
1487138105220691713,0.00311179582233,-0.000110767500816,-0.0147530836969
1487138105258107034,0.00292095094333,-8.63018160586e-05,-0.0136313775682
1487138105258201826,0.00303984413473,-7.64517926113e-05,-0.0138204691348
1487138105258278159,0.00286584323248,-6.86406556069e-05,-0.0129047069576
1487138105258344284,0.00295271605421,-7.64085031308e-05,-0.0131023726689
1487138105258400784,0.00302530046476,-0.000105045857423,-0.0133511625854
1487138105258487659,0.0030676445776,-0.000119490486544,-0.0136022200394
1487138105258617700,0.00288702043432,-0.000114991586308,-0.0126563045525
1487138105258796075,0.00291821422671,-8.64957898492e-05,-0.0129098329566
1487138105258861533,0.00295642433606,-4.42553642195e-05,-0.0132005294784
1487138105258918991,0.00277770490418,-3.20722145148e-05,-0.0123240979803
1487138105258982408,0.00284718418199,1.75142548352e-06,-0.0126841888259
1487138105259040074,0.00291032712903,1.62568675471e-06,-0.0129850602721
1487138105259191158,0.00273598496726,2.44698127002e-06,-0.0121590315215
1487138105259312907,0.00279153215159,-3.52450863301e-05,-0.0125863993413
1487138105298064435,0.00264093567896,-2.54317418069e-05,-0.0118249578036
1487138105298161268,0.00270981010078,-0.000123474004157,-0.0127343150644
1487138105298220059,0.00271724450353,-0.000130142666269,-0.0127968471476
1487138105298275518,0.00274526831561,-0.000142673213018,-0.0129372872325
1487138105298339518,0.00277845570294,-0.000148212244004,-0.0130717090389
1487138105298448809,0.00261165582604,-0.000135805651755,-0.0122050359338
1487138105298536726,0.00267273509365,-0.000123935958761,-0.0124932125588
1487138105298605850,0.00268987453191,-0.000105096803755,-0.0126861648249
1487138105298676642,0.0026961189554,-8.28763814686e-05,-0.0130479007513
1487138105298738392,0.00252321080784,-6.21990203304e-05,-0.0121503835158
1487138105298789850,0.00252449701244,-8.47236555224e-05,-0.0125049485393
1487138105298917558,0.00251494484507,-0.00015609880009,-0.0128498581084
1487138105300488764,0.00251770490289,-0.000233250276246,-0.0131042827788
1487138105300564973,0.00252406210677,-0.000342312038976,-0.0134063615498
1487138105300615848,0.00224394860138,-0.000372349542825,-0.0124997525948
1487138105307514754,0.00224801683969,-0.000435754385965,-0.0127342787093
1487138105307638421,0.00201976140881,-0.000458453084302,-0.0119785572403
1487138105344780450,0.0020405349635,-0.000484193579641,-0.0122031012538
1487138105344846950,0.00209804344773,-0.000430410852442,-0.0126910296531
1487138105344904283,0.00216247142504,-0.000398780173324,-0.0130426976284
1487138105344967742,0.00199137700495,-0.000395670164725,-0.0121095042586
1487138105345525699,0.00209273192303,-0.000387802639004,-0.0124992537677
1487138105345928865,0.00196021299457,-0.000354470361342,-0.0116643363902
1487138105346055032,0.00203545807221,-0.00035989440333,-0.0118728104574
1487138105346111823,0.00210915869175,-0.00035366206779,-0.0120524699609
1487138105346165615,0.00221061759777,-0.000311458098267,-0.0123020723895
1487138105346219948,0.00207004457095,-0.000301724053702,-0.0114871011479
1487138105346306198,0.0021474405612,-0.000253326452373,-0.0117040989797
1487138105346805739,0.00221822353966,-0.000195825410382,-0.0119414974409
1487138105384749892,0.00208205328792,-0.00017798434105,-0.0111568644024
1487138105384848267,0.00213580149574,-0.000128459168798,-0.0113941667018
1487138105384940017,0.00217636383077,-9.40770307984e-05,-0.0116842300027
1487138105385031975,0.00218258077692,-9.24576401391e-05,-0.0119648333472
1487138105385098892,0.00206252754921,-5.87916791976e-05,-0.0111327056515
1487138105385217183,0.00203162888009,-8.60714749806e-05,-0.0113822333683
1487138105385293850,0.00198091772526,-0.000128433764814,-0.011625374098
1487138105385379183,0.00183386907204,-0.000123339399571,-0.0108637690835
1487138105385440850,0.00179887084889,-0.000220524861984,-0.0112354369535
1487138105385504516,0.00180793117124,-0.000252230281557,-0.0113602562259
1487138105385567058,0.00184740980536,-0.000287353671048,-0.011594484073
1487138105385624141,0.00170120129318,-0.000272787082006,-0.0108118001744
1487138105385696599,0.00177161529972,-0.000280507617141,-0.0110687896854
1487138105386482848,0.00185769927495,-0.000275463373427,-0.0113116684964
1487138105423265170,0.00173348842541,-0.000249503390718,-0.0105746108188
1487138105423325545,0.00180010703721,-0.000241025974818,-0.0107741600658
1487138105423378586,0.00185959370478,-0.000249205944073,-0.0109952006395
1487138105423439086,0.00188604982966,-0.000276064777005,-0.0111244159462
1487138105423615836,0.00190196735154,-0.000327369835716,-0.0112706806172
1487138105423675503,0.00176533818943,-0.000301647578773,-0.0104336695525
1487138105423735836,0.00177744501588,-0.000382493061164,-0.0106506509364
1487138105423793002,0.00166973219792,-0.000362927240304,-0.00992670439519
1487138105423866169,0.00168645784863,-0.000401630382587,-0.0100654833407
1487138105423917294,0.0017286311728,-0.000424747275883,-0.0102589453122
1487138105423978752,0.00177817014227,-0.000434754640711,-0.010465131991
1487138105424028127,0.0018317719714,-0.000442248996272,-0.0106992316929
1487138105424179710,0.00172267908121,-0.000405399223698,-0.00988245493394
1487138105425292084,0.00179938682459,-0.000385572999223,-0.0102602017431
1487138105427408997,0.00183316078655,-0.000366639383255,-0.0104070544946
1487138105462939362,0.00169546097285,-0.000363329155803,-0.00968761506206
1487138105462998904,0.00174646698379,-0.000329131885083,-0.00988016520239
1487138105463055154,0.00177664592822,-0.000282776273806,-0.0100573297875
1487138105463114779,0.00166075920193,-0.000262970164529,-0.00938539195709
1487138105463177737,0.0016763112806,-0.000216876243785,-0.00953543060848
1487138105463241987,0.00171506900666,-0.00018422398732,-0.00972459743144
1487138105463310987,0.00160770845953,-0.000164904915754,-0.00908503726959
1487138105463371112,0.00165750916806,-0.000149211908302,-0.00927555431872
1487138105463745736,0.00170661575362,-0.000137703553017,-0.00954170264964
1487138105463801111,0.00172432448684,-0.000144012552474,-0.00967541926741
1487138105463855861,0.00162250671212,-0.000121576181558,-0.00901525731497
1487138105463952861,0.00167306503927,-0.000138125205359,-0.00927574980994
1487138105503452095,0.00176078317746,-0.000152471983624,-0.00960010969561
1487138105503539762,0.00184637702168,-0.000156092887756,-0.00979591989409
1487138105503627678,0.00172111966801,-0.000137359092808,-0.00911457312731
1487138105503692512,0.00182454221464,-0.00011788510607,-0.00931286464629
1487138105503748720,0.00190566705923,-7.47906336751e-05,-0.00949076165273
1487138105503828095,0.00177887087512,-6.44835746123e-05,-0.00886590618729
1487138105503926636,0.00186158313002,-5.82367939592e-06,-0.00904338526908
1487138105504051094,0.00194726943653,7.08616743896e-05,-0.00922622807178
1487138105504109136,0.00183827482898,8.1927477865e-05,-0.0086232091868
1487138105504420677,0.00190621307631,0.000154147023713,-0.00881654854504
1487138105504586635,0.00200297642323,0.000236013820308,-0.00914947689461
1487138105504696010,0.00203292439316,0.000247616321955,-0.00924108359561
1487138105504768052,0.00192988239833,0.000270274520534,-0.00861647641653
1487138105504822968,0.00204748814282,0.000275999856147,-0.00887571899983
1487138105543478162,0.00211597534997,0.000273925668687,-0.00899696060645
1487138105543597204,0.00198922309136,0.000274170399952,-0.00842564321824
1487138105543675495,0.00213890911576,0.00026679599544,-0.00870087077362
1487138105543742620,0.00220569921741,0.000248539417827,-0.00885042662975
1487138105543862328,0.00224539758349,0.000213704195145,-0.00904131659354
1487138105543926203,0.0022497986469,0.000180730203832,-0.00921597371894
1487138105543982703,0.00212190973227,0.000191857063098,-0.00854489747933
1487138105544151453,0.00213619350848,0.000177508048133,-0.00869569108977
1487138105544209661,0.00214389043826,0.000180542011193,-0.008732165266
1487138105544258620,0.00215121554062,0.000177176473489,-0.00880805389409
1487138105544450661,0.0021730106787,0.000176182908164,-0.00891756759813
1487138105544501328,0.00201655042954,0.000162737377961,-0.00821421543216
1487138105544550744,0.00208871804087,0.000188667770825,-0.00840438418788
1487138105545914200,0.00218764509921,0.000221858526894,-0.00862620202952
1487138105546092200,0.00204841540135,0.000221946626991,-0.00795286925273
1487138105582997855,0.00216435277085,0.000237564906163,-0.00822269302711
1487138105583109813,0.00221767066481,0.000247900098518,-0.00838621955791
1487138105583171438,0.0022670445187,0.000270197053098,-0.00854081739737
1487138105583232188,0.00213989171274,0.000292519138068,-0.00787109151393
1487138105583305355,0.00219798321109,0.000307386101829,-0.00799891776086
1487138105583382980,0.00228258800497,0.000286240240625,-0.00817098509225
1487138105583439396,0.0021527715307,0.000285824336961,-0.00756381949434
1487138105583493438,0.0021949139812,0.000234665634762,-0.00786003206275
1487138105583558229,0.00207815307019,0.000220992529723,-0.00732711149187
1487138105583636896,0.00208854464735,0.000198474247725,-0.00749203052732
1487138105583998770,0.00210588098533,0.000174154743131,-0.00775007920151
1487138105623254547,0.00197054875319,0.000158499905046,-0.00724033426807
1487138106158009355,0.00198370989264,0.000190505891227,-0.00741383139285
1487138106160600977,0.00201482468587,0.000222298113862,-0.00756982155229
1487138106163162681,0.00203349320589,0.000242302415842,-0.00767590942678
1487138106165692761,0.00204701027016,0.000252010655272,-0.00778700445375
1487138106167457383,0.00188851538838,0.00023251274159,-0.0073321618147
1487138106171774294,0.00189578736942,0.000205160717501,-0.00752239759481
1487138106174748914,0.00190167880258,0.000169345709918,-0.00761009466896
1487138106176231579,0.00173396455242,0.000146190462413,-0.00718501026711
1487138106180471239,0.00177783284269,7.2084725657e-05,-0.00737064739303
1487138106183408152,0.00179746280828,2.11790805542e-05,-0.00745237746719
1487138106189832143,0.00169961936219,1.34822004534e-05,-0.00696362986357
1487138106193019763,0.00180318644996,-9.72233817853e-05,-0.00716354762255
1487138106196528091,0.00188177229532,-0.000130584616556,-0.00735914849656
1487138106198689421,0.00178561030132,-0.000132484510624,-0.00685494840793
1487138106203498831,0.00188482016075,-0.000187784424979,-0.00715032764634
1487138106205641203,0.00190954475966,-0.000191730084399,-0.00721106984571
1487138106207257992,0.00175825656173,-0.000200687820701,-0.00679211166207
1487138106243136940,0.00183867902658,-0.0001831332101,-0.00696032284503
1487138106243216899,0.00193570350824,-0.000146823786914,-0.00716521891326
1487138106243288398,0.00198402687124,-0.000113058051654,-0.00731540933555
1487138106243347773,0.00200105595295,-7.00606212569e-05,-0.00746543835913
1487138106243417273,0.00198760003836,-2.64988165075e-05,-0.00761343605581
1487138106243489231,0.001858212711,-1.81722956941e-05,-0.00703629538927
1487138106243555065,0.00181758739927,2.17615193633e-05,-0.0072404433426
1487138106243634065,0.00166586772481,5.72056011032e-06,-0.00682948329254
1487138106243723273,0.00164151197788,1.17272177247e-05,-0.0070490565007
1487138106243881231,0.00154892290749,1.14506157836e-05,-0.00661307046606
1487138106243962397,0.00155846589741,-9.44967833477e-06,-0.00675617380381
1487138106244179314,0.0015837075041,-2.47342205689e-05,-0.00686539213211
1487138106283266299,0.00146782105611,-3.86472357486e-05,-0.00650650890298
1487138106283350049,0.0016044788065,-5.19818416631e-05,-0.00684548897937
1487138106283432674,0.00166914040548,-5.9497152284e-05,-0.0069927336728
1487138106283552340,0.00175149520985,-6.80471589942e-05,-0.00717123257095
1487138106283619590,0.00165372386808,-6.70812814678e-05,-0.0067092132654
1487138106283684548,0.00179488541964,-7.08292735796e-05,-0.00690385631532
1487138106283744048,0.0019073159142,-6.43378802128e-05,-0.00704059835306
1487138106283840881,0.00202480555996,-4.06777139501e-05,-0.00721230878497
1487138106284140839,0.00187530832334,-5.55603810764e-05,-0.00678857148781
1487138106284199839,0.00193685950627,-3.38978108501e-05,-0.00692304154143
1487138106284250214,0.00199015297471,-1.0961579138e-05,-0.00711493359029
1487138106284299756,0.00190498497659,-8.80116121337e-06,-0.00666127346441
1487138106284376464,0.00193187600308,1.26432777959e-05,-0.00681767104402
1487138106323107699,0.00181891301595,1.43084621121e-05,-0.00646699868598
1487138107569868226,0.00297213264582,-7.311807666e-05,-0.00655431860804
1487138107575098719,0.00282963621858,-6.17458696991e-05,-0.00612840916165
1487138107579954212,0.00303121496846,-0.000231902493386,-0.00648843427501
1487138107584068956,0.00290620212046,-0.00018293800782,-0.0065560742247
1487138107587315409,0.00276273523251,-9.15825787416e-08,-0.00667949790989
1487138107589841406,0.00281353380898,0.000129734452468,-0.00673205637821
1487138107593743192,0.00261287110299,0.000130526980199,-0.00623065078753
1487138107595805439,0.00285763662744,0.000240801922944,-0.00628485951862
1487138107598178519,0.00269505021488,0.000244784633904,-0.00583797542306
1487138107601208848,0.00319301935812,7.26356341096e-06,-0.00600126078646
1487138107604012427,0.00322846232172,-8.78599933141e-05,-0.0060926044427
1487138107606007466,0.00309946052796,-0.000250588773213,-0.00633968539313
1487138107607307089,0.00290762816295,-0.000256650926833,-0.00586725134297
1487138107609844502,0.00258945587231,-0.0003851027774,-0.00617088471989
1487138107611874374,0.00247637915885,-0.000393365504252,-0.00625460779324
1487138107614619370,0.00238133226092,-0.00036778131237,-0.00634379961249
1487138107616479617,0.00220102488974,-0.000353893122838,-0.0058705574305
1487138107653110522,0.0027979684032,-0.000241376387622,-0.00582712769139
1487138107653417564,0.00299263914479,-0.000267718137126,-0.00586844409918
1487138107653486939,0.00279100386539,-0.000245955694883,-0.00535707685141
1487138107653546522,0.00274106520445,-0.000344039673472,-0.00569771910369
1487138107653594605,0.00260351725247,-0.000403113804406,-0.00598101373976
1487138107653641522,0.0023971759848,-0.000392938550428,-0.00550266950911
1487138107653742647,0.00222996907405,-0.000433457315658,-0.00574608670615
1487138107653817105,0.00208045776209,-0.000431986448362,-0.00593605047973
1487138107693319298,0.00207127736411,-0.000363546265323,-0.00608574134043
1487138107693468381,0.0018600526559,-0.000356817858252,-0.00560545638274
1487138107693534172,0.00187986403522,-0.000308276618684,-0.00572489084439
1487138107693596755,0.0020427160464,-0.000285231215614,-0.00583274821631
1487138107693673380,0.00208960210396,-0.000326299691237,-0.00599736697475
1487138107693736964,0.00187394291274,-0.000303794371538,-0.00545127384697
1487138107693807130,0.00175604757639,-0.000330461607597,-0.00557840569172
1487138107693920297,0.00157381270629,-0.000344640697392,-0.00578264963701
1487138107694364129,0.00138563124581,-0.000322252570027,-0.00529587915057
1487138107694637254,0.00115773953342,-0.000301060653163,-0.00557702024224
1487138107732994948,0.000994083362773,-0.000285485694591,-0.00515580447018
1487138107733057282,0.000962286464251,-7.72139302847e-05,-0.0053929529638
1487138107736409985,0.000947560675918,-5.70971101643e-05,-0.00541681434822
1487138107736520193,0.000788338964194,-4.44230094876e-05,-0.00500228870887
1487138107736598360,0.000771060070985,1.91308061311e-05,-0.0050925582018
1487138107736653943,0.000751514839095,5.0432961074e-05,-0.00516239706363
1487138107736758193,0.000624376500468,6.23378546659e-05,-0.00478800260364
1487138107736805734,0.000624453742162,-5.46672294247e-06,-0.0050023445711
1487138107736857026,0.000673709625286,-0.000111465008524,-0.00513378573785
1487138107736929651,0.000561796153152,-9.08453364746e-05,-0.00477286846972
1487138107736980609,0.000698661261648,-0.000245112350386,-0.00487060527928
1487138107737129817,0.000901626857477,-0.000389016497223,-0.00492438944929
1487138107773081515,0.00113131342664,-0.00056303015467,-0.00496909521965
1487138107773138807,0.00104996715548,-0.000551525537356,-0.004577493908
1487138107773188015,0.00130506791456,-0.000755792187174,-0.00461145451914
1487138107773275057,0.00137784166686,-0.000772735799487,-0.00463818106331
1487138107773334348,0.00137734028876,-0.000693792528864,-0.0047182113253
1487138107773393723,0.00128201276722,-0.000666001350723,-0.00434156320337
1487138107773583765,0.00120845426804,-0.000551649439117,-0.00438542203409
1487138107773645848,0.0010842375678,-0.000379275915403,-0.00445878231054
1487138107773708889,0.000986495197745,-0.000363862327555,-0.00412655195872
1487138107773773014,0.000764764944165,3.81072008157e-06,-0.00429384778261
1487138107773879056,0.000704715077877,7.17566977184e-05,-0.00433272780765
1487138107774785346,0.000623698136276,9.8579931899e-05,-0.0039954333473
1487138107776699302,0.000578514018116,0.00015066233363,-0.00400161556163
1487138107776757718,0.000659247668423,0.000149341633448,-0.00401391072816
1487138107812920208,0.00078686729573,7.50539183612e-05,-0.00404504927371
1487138107812992332,0.000744212543526,0.000114340889296,-0.00366159404787
1487138107813057166,0.000898075510435,-1.62423698268e-06,-0.00369355400255
1487138107813246082,0.000833409013764,1.26384125142e-05,-0.00342126407535
1487138107813367999,0.000958880530206,-0.000162876152329,-0.00364911594619
1487138107813459540,0.00101692540007,-0.000261064532308,-0.00379954528529
1487138107813543415,0.0009444799626,-0.000254152510314,-0.00355311308122
1487138107813764123,0.000962025878763,-0.000309605009969,-0.00364666974326
1487138107813906414,0.000959224629469,-0.000331149867346,-0.00374417050062
1487138107813980039,0.000940475050577,-0.000309383738029,-0.00382883777945
1487138107814056831,0.000939505908825,-0.000250184272938,-0.00387194116294
1487138107814221956,0.000845136801084,-0.000250349181317,-0.0036075126367
1487138107814289289,0.000861354635489,-0.000109862800287,-0.00365068024325
1487138107814354705,0.000865831173819,3.21651191388e-05,-0.00367273451221
1487138107819980281,0.000869546098116,0.000181032943495,-0.00372255349981
1487138107858051350,0.000790976859208,0.000197521050087,-0.00343399857447
1487138107858133517,0.000790191788099,0.00021924846099,-0.00352401607435
1487138107858221059,0.000728093626724,0.000234615544581,-0.00327004875339
1487138107858274850,0.000768316981357,0.000154413483463,-0.00353825616349
1487138107858418892,0.000823509931443,3.80415078622e-05,-0.00371601294725
1487138107858477058,0.000762043360704,4.80059312726e-05,-0.00348143920248
1487138107858548225,0.000869882523766,-0.000111672876477,-0.00377947757008
1487138107858632433,0.000931150279058,-0.000192782869089,-0.00394871471386
1487138107858678475,0.000871137698496,-0.000183778534088,-0.00371947446463
1487138107858752558,0.000990033362271,-0.000274437562592,-0.00397409532113
1487138107858799391,0.00103950224747,-0.000282315972486,-0.00412601309588
1487138107858853141,0.00106291821795,-0.000253890588397,-0.00432724671882
1487138107860369639,0.00106795220802,-0.00020648923919,-0.00453251277239
1487138107898593750,0.00102707871716,-0.000123677191628,-0.00475665865125
1487138107898663292,0.000961931579674,-0.000110331301488,-0.00445369728411
1487138107898743333,0.000917322646821,2.24564953284e-05,-0.0046153374534
1487138107898798708,0.000846947834746,2.46082895503e-05,-0.00437110947918
1487138107898935125,0.000857810358568,0.000188868449508,-0.00448517343074
1487138107899012124,0.000852029480797,0.000301515335664,-0.00460289765832
1487138107899090833,0.000787963002273,0.000312940589628,-0.00436624221148
1487138107899169958,0.000883977162481,0.000386431312759,-0.004563919878
1487138107899257541,0.000826883653744,0.000397963152196,-0.00433201736131
1487138107899958123,0.000955060531716,0.000247565439246,-0.0044204718902
1487138107900046415,0.00106770020372,0.000142932303465,-0.00446870866341
1487138107900187623,0.00111197638385,6.29359266457e-05,-0.00452772042186
1487138107900330914,0.00105073203474,5.98626850591e-05,-0.00428888548148
1487138107900425664,0.00109241782355,-4.84693846319e-05,-0.00437067747305
1487138107938176484,0.00113467953737,-0.000204315028954,-0.00450274650868
1487138107938269859,0.00107416102811,-0.000207710901912,-0.00427168099818
1487138107938330401,0.00108779725179,-0.000308766180408,-0.0044089996052
1487138107938399109,0.00108619456842,-0.000336988106355,-0.00445903463245
1487138107938531942,0.0011252256152,-0.00034833158846,-0.004543625954
1487138107938650400,0.00106607078622,-0.000345066108069,-0.00429614647029
1487138107938850858,0.0011462080496,-0.000355554199935,-0.00437509533049
1487138107938907275,0.0011741847531,-0.000363139734747,-0.00446054902261
1487138107939183775,0.00111959175658,-0.000357570796648,-0.00420502606182
1487138107939249983,0.0011601964439,-0.000339353690483,-0.0042777756278
1487138107939312816,0.00122336797315,-0.000323373353034,-0.00441373374181
1487138107939749190,0.00116490056074,-0.000335559296926,-0.00417846430955
1487138107939825065,0.0011814005271,-0.000328018738479,-0.00430815691894
1487138107939916399,0.00121459370236,-0.000324157692248,-0.00441389053515
1487138107979306675,0.00122359521578,-0.000360218082344,-0.00459535802057
1487138107979414383,0.00115866708894,-0.000351529552262,-0.00435009756232
1487138107979478550,0.00113680394582,-0.000380663335578,-0.00444567455008
1487138107979537924,0.00114771814803,-0.000385601629848,-0.00457783108263
1487138107979598258,0.0011725781838,-0.00035328548095,-0.00474644154255
1487138107979661716,0.0012183884666,-0.000296672651681,-0.00490073359734
1487138107979822049,0.00124953727516,-0.000252498894827,-0.00506890977152
1487138107979892674,0.00118332411548,-0.000221678399593,-0.00474508434053
1487138107980006674,0.00117086359941,-0.000149121018166,-0.00493726799823
1487138107980063049,0.00113560765749,-8.84576507967e-05,-0.00510828602776
1487138107980125382,0.00106781772112,-2.97744746496e-05,-0.00521148388137
1487138107980524465,0.00100514043563,1.45982201656e-05,-0.00539020139436
1487138107980580715,0.00092156965197,3.20853243079e-05,-0.00503821681498
1487138107985425541,0.000810942093608,3.97336522477e-05,-0.00526461262149
1487138108018314577,0.000722889474275,3.21528908677e-05,-0.00499037801868
1487138108018390660,0.000655697167797,6.83690149463e-05,-0.00514415816383
1487138108018461368,0.000646268785641,0.000108467168328,-0.00523100469994
1487138108018526993,0.000571230567177,0.000115348044831,-0.00494629393636
1487138108018622410,0.000630386279326,0.00010990681463,-0.00498112068146
1487138108018738493,0.000652614618698,0.000116197909164,-0.00501768030742
1487138108018802201,0.00065215977823,0.000119607443894,-0.00512575152422
1487138108018989367,0.000593966222717,0.000136164101039,-0.00480000877421
1487138108019055409,0.00061587463826,0.000201180580516,-0.00498395287917
1487138108019160950,0.000645060068845,0.000249944794987,-0.00511872201645
1487138108019348200,0.000595590952159,0.000256285658398,-0.00482379233106
1487138108019603908,0.000637982661445,0.000312623714075,-0.00492869860676
1487138108058206769,0.000674865256876,0.000379666443694,-0.00501971936615
1487138108058285477,0.000622526375569,0.000378314868258,-0.00473658300902
1487138108058333435,0.000646579561803,0.000442370137748,-0.0047861420588
1487138108058446435,0.000676954098402,0.000477625295613,-0.00484286096773
1487138108058697976,0.000699849809273,0.000500672123625,-0.00495154973342
1487138108058785393,0.000643694062322,0.000496026426653,-0.0046651033331
1487138108058891435,0.000679278326629,0.000532539875529,-0.00484468446646
1487138108059008601,0.000661521347862,0.00058025008234,-0.00498590033922
1487138108059055934,0.000613832015244,0.000574507074952,-0.00471576299214
1487138108059229351,0.000537768953272,0.000626086492872,-0.00488500378762
1487138108059415309,0.000434121216678,0.000659843056454,-0.00507753652147
1487138108059481809,0.000347224368976,0.000676468438492,-0.00518060916505
1487138108098686210,0.000292168272116,0.000704981651012,-0.00532858078853
1487138108098803960,0.000253286929844,0.000733812273523,-0.00553264204007
1487138108098910543,0.000194634862843,0.000725314280924,-0.00516089685458
1487138108098995918,0.000197588754322,0.000672252195344,-0.00531695076506
1487138108099075460,0.000160164458442,0.000673295975022,-0.00499896871224
1487138108099126001,0.00024866550522,0.000571807249223,-0.00522019445143
1487138108099258251,0.000276620230478,0.000498005807444,-0.00535084020521
1487138108099325501,0.000330442922424,0.000442235429613,-0.00554189663347
1487138108099381876,0.000286529152137,0.000430427564493,-0.00521459917758
1487138108099433751,0.00033075278688,0.000409892866077,-0.0054636016435
1487138108099519084,0.000303275345852,0.000393219609342,-0.00517288982008
1487138108099570126,0.000319364831242,0.000417696971418,-0.00531874475143
1487138108099698000,0.000310400519133,0.000472136556706,-0.00539079393383
1487138108099755917,0.000274804838464,0.000451722713548,-0.00512404470707
1487138108138216736,0.000239870033445,0.000548167747247,-0.0051491878346
1487138108138340403,0.000213195845499,0.000534719702466,-0.00490045560389
1487138108138406403,0.000131109549991,0.000701608750646,-0.00491816473613
1487138108138552402,0.000129765079469,0.000703616285094,-0.00491832097634
1487138108138633694,8.49922492296e-05,0.000775890079048,-0.00497747775893
1487138108138714736,1.53706905515e-05,0.000842102264244,-0.0050807310877
1487138108138823652,-2.55314764396e-05,0.000813573844891,-0.00480059732557
1487138108138962860,-0.000141734635577,0.000927529783873,-0.00504916909358
1487138108139101193,-0.000203157762687,0.000993273102104,-0.00521986299549
1487138108139165277,-0.000222696388974,0.000969562937495,-0.00492313571976
1487138108139360776,-0.000310229301936,0.0010107296585,-0.00512628993994
1487138108139730567,-0.000325000064558,0.00105213630232,-0.00524832895809
1487138108140087150,-0.000329228036565,0.00103614350586,-0.00495215676045
1487138108140193317,-0.000359745543609,0.00101922476995,-0.00515407663769
1487138108179016344,-0.000348787651172,0.00101354483763,-0.00523467572785
1487138108179086094,-0.000286306291443,0.00097927055365,-0.00546854327291
1487138108179135469,-0.000321764150526,0.000924459739677,-0.00520648681009
1487138108179207344,-0.000274442131909,0.000861844358134,-0.00548688695835
1487138108179268677,-0.000230904777455,0.000787998354372,-0.00563756543193
1487138108179347385,-0.000182016416025,0.000695308167284,-0.00580152938355
1487138108179426385,-0.000157459223947,0.000612607838296,-0.00592848079643
1487138108179588885,-0.000169745017249,0.000562092621284,-0.00557080322557
1487138108179635010,-0.000174570073042,0.000350524531939,-0.00576769651539
1487138108179804968,-0.000192542903777,0.000317692464268,-0.00543790084027
1487138108179866551,-0.000211734881105,0.00024362465042,-0.00549615524901
1487138108179922051,-0.000305512251401,0.000155970886818,-0.00557411680896
1487138108179969717,-0.000330321044556,0.000115586150124,-0.0053020081267
1487138108180023176,-0.000489638317987,3.52667397152e-05,-0.00533884811765
1487138108184560461,-0.000667664332855,1.21852461589e-05,-0.00535844753253
1487138108223114738,-0.000661139630977,-1.43676617155e-05,-0.00504539131883
1487138108223230196,-0.000771810816282,3.33299332285e-05,-0.00506290361187
1487138108223299780,-0.000849692774047,0.000128777082548,-0.00505664518673
1487138108223370571,-0.000873459016806,8.0829478269e-05,-0.00481459038937
1487138108223470821,-0.000970902711558,0.000242705668336,-0.00481568474044
1487138108223554946,-0.00102309687514,0.000324889230617,-0.00484098088361
1487138108223631404,-0.00104608002833,0.000387497013122,-0.00490110411113
1487138108223732237,-0.00102749088855,0.000395791826707,-0.0050063406504
1487138108223825029,-0.00101395749915,0.000367985446114,-0.00468658735485
1487138108223928529,-0.000939985576601,0.000321780557893,-0.0048673283224
1487138108223990529,-0.000918324635909,0.000297949523139,-0.0045686728459
1487138108224051404,-0.000847043437794,0.00025248578423,-0.00467175479019
1487138108224120653,-0.000818230483361,0.000181099994998,-0.00477265945679
1487138108263541513,-0.000831041645974,0.000136022607215,-0.00485778533985
1487138108263604763,-0.000834791090135,9.82164498422e-05,-0.00457277745236
1487138108263661888,-0.000877995419835,0.000100754888019,-0.00470329010551
1487138108263714054,-0.00085656599973,8.45957305781e-05,-0.00442717416535
1487138108263784638,-0.000871457785308,9.5880630961e-05,-0.00453636184724
1487138108263896887,-0.000914739269589,9.84075046309e-05,-0.00469236132457
1487138108263966596,-0.000938093266925,0.000110501433564,-0.00473829138323
1487138108264051971,-0.000980866774931,0.000149055191582,-0.00477767529165
1487138108264195137,-0.000945493478756,0.00014428751783,-0.00445512631166
1487138108264287679,-0.00101456503369,0.000228195216216,-0.00451027574749
1487138108264346887,-0.00103900200344,0.000273576809105,-0.00453899112057
1487138108264501137,-0.0010128126497,0.000256752957838,-0.00427091782705
1487138108264565137,-0.00106974412449,0.000253333621554,-0.00436400150326
1487138108303250914,-0.00111305804621,0.000223715927159,-0.00444291059878
1487138108303334247,-0.00113841155275,0.000162457486765,-0.00454003955872
1487138108303400997,-0.00111276302626,6.3020738466e-05,-0.00463008849601
1487138108303535997,-0.00109717918029,2.58911997442e-05,-0.00432294730834
1487138108303604538,-0.000994653609808,-0.000111595808142,-0.00443725628469
1487138108303667997,-0.000910079259064,-0.000175381255956,-0.00450094585705
1487138108303744705,-0.000804173264306,-0.000197308003987,-0.00458667343756
1487138108303814788,-0.000721366756926,-0.000206238185784,-0.00420731680633
1487138108303893580,-0.000592532926817,-0.000257304462313,-0.00430699266451
1487138108303950288,-0.000556097985871,-0.000278438594915,-0.00433588297915
1487138108304097913,-0.000492194474217,-0.000284818801296,-0.00398923589574
1487138108304147829,-0.000473877536251,-0.000323707190775,-0.0040636915603
1487138108304194787,-0.000492727948181,-0.000337708961442,-0.00411443857547
1487138108348116640,-0.000438583647559,-0.000337759788998,-0.00380319469939
1487138108348220807,-0.000518758174795,-0.000333471090418,-0.00393892728368
1487138108348286182,-0.000616780320176,-0.0002937259421,-0.00411062173566
1487138108348400307,-0.000559885543054,-0.000287184849319,-0.00380215906288
1487138108348482557,-0.000618934044994,-0.00027053709135,-0.00400558492464
1487138108348547765,-0.000641688541169,-0.000238026778643,-0.00416487053593
1487138108348723181,-0.00058394810457,-0.00024442098627,-0.00386755807645
1487138108348881181,-0.000615498705518,-0.00024173900486,-0.00407513995719
1487138108349030639,-0.000593468319089,-0.000236572387822,-0.00418442162206
1487138108349080431,-0.000550182451405,-0.000240257031623,-0.00392519606004
1487138108349203014,-0.000490174431501,-0.000227790469811,-0.00402927075319
1487138108349273930,-0.000466839766997,-0.000224715097408,-0.00407138106331
1487138108349339889,-0.000406559199156,-0.000222992930864,-0.00412813185886
1487138108349494222,-0.000335670795568,-0.000262911631344,-0.00417818944015
1487138108349554847,-0.000288053159125,-0.000261235304867,-0.00387774379368
1487138108394156782,-0.000238329741041,-0.000320598437707,-0.00391211397397
1487138108394247782,-0.000205225605354,-0.000362856072426,-0.00396096757595
1487138108394364532,-0.000177405130286,-0.000360664483595,-0.00369322455574
1487138108394501448,-0.000172172634917,-0.000401824855949,-0.00375661069785
1487138108394568948,-0.000169100320054,-0.000454701390495,-0.00381197720307
1487138108394650198,-0.000150007421543,-0.000490365786728,-0.00387195951785
1487138108394695490,-4.31044542386e-05,-0.00055457550982,-0.0039859728239
1487138108394823323,3.00717586452e-06,-0.000544798560082,-0.00367918142456
1487138108395075031,-4.88281143887e-06,-0.00065478511965,-0.00381810499783
1487138108395326530,3.88925244883e-05,-0.000634351701462,-0.00354911380501
1487138108395404280,3.44845211511e-05,-0.000685570022178,-0.0037040868188
1487138108395462905,-7.98539873881e-06,-0.000724873654089,-0.00383942204996
1487138108395521072,-7.7315799448e-05,-0.000720469024326,-0.0039221748161
1487138108395575780,-5.64004428213e-05,-0.000716664507992,-0.00368465960764
1487138108395637405,-0.000129789127466,-0.000687904321595,-0.00378175014779
1487138108433245517,-0.000116087157485,-0.000682053258889,-0.00357057923369
1487138108433342767,-0.000159601363559,-0.000654166620397,-0.0036542524949
1487138108433433475,-0.000188710250122,-0.000643889531435,-0.00375156928018
1487138108433494558,-0.000179935891945,-0.000588791343997,-0.00392216050457
1487138108433588933,-0.000145686658147,-0.00056424218997,-0.00367486958018
1487138108433656767,-0.000136266343199,-0.000534814261613,-0.00377504339886
1487138108433752433,-8.13971393518e-05,-0.000523892554231,-0.00385846805136
1487138108433905724,-6.71471724876e-05,-0.000511606487007,-0.00364537207828
1487138108434326099,3.82672484316e-05,-0.00047706291965,-0.00380538578361
1487138108434443265,9.92774233222e-05,-0.000482499394291,-0.0039416837304
1487138108434536557,0.000110069293416,-0.000470268766668,-0.00373350153494
1487138108434760890,0.000195982494162,-0.000517531752827,-0.00396196310325
1487138108435243264,0.000206135914217,-0.000557005445216,-0.0040386325513
1487138108437462594,0.000232779235121,-0.00052847248776,-0.00381086359769
1487138108437761511,0.0002761658225,-0.000564952904593,-0.00393900863477
1487138108473055209,0.000280287553322,-0.000573031428843,-0.00399058639582
1487138108473102459,0.000264014172702,-0.000590688339418,-0.00414187648539
1487138108473156376,0.000281117720208,-0.000570329817814,-0.00390828047843
1487138108473208959,0.000245347492204,-0.000552721203395,-0.0040834831907
1487138108473269042,0.000217599750691,-0.000510569880955,-0.00417008920033
1487138108473347001,0.000231661066792,-0.000478028443437,-0.00393506179403
1487138108473431209,0.000162361247096,-0.000341808710168,-0.00413912328796
1487138108473579542,0.000141888296871,-0.000293351760932,-0.00421276253627
1487138108473746542,0.00011896105729,-0.000193219673855,-0.00436004361623
1487138108473905708,0.000138937632118,-0.000157793468468,-0.0044633218358
1487138108473958458,0.000141644209782,-0.000142158892004,-0.00421912189329
1487138108474015458,0.000178834479495,-0.000161018862551,-0.00432336266499
1487138108513686109,0.000214719910195,-0.000193967141871,-0.00439638444871
1487138108513750567,0.00026312447422,-0.000282905453245,-0.00451039494391
1487138108513814484,0.000276155287706,-0.000260038328348,-0.00424315671351
1487138108513892734,0.000293472116118,-0.000408003991083,-0.00437802099464
1487138108514003442,0.000308570675086,-0.000532619419634,-0.0044672001051
1487138108514086900,0.000317630246392,-0.000506979594577,-0.00419986954615
1487138108514177983,0.000341268695948,-0.000683128988349,-0.00435884533658
1487138108514261941,0.000342297369821,-0.000748604731477,-0.00444074472369
1487138108514404650,0.000332951575562,-0.000727808608765,-0.00420421596069
1487138108514626441,0.000336930539717,-0.000803171825289,-0.00434386830906
1487138108514719649,0.000341038283819,-0.000897017173607,-0.0045375314331
1487138108514769107,0.000328037176922,-0.000879766108589,-0.00430749114372
1487138108514962024,0.000321138324484,-0.000960629259126,-0.00443322361758
1487138108515190732,0.000324573033538,-0.00103604777095,-0.00454018845855
1487138108553197802,0.000321133947844,-0.00100546434287,-0.00431447014432
1487138108553247135,0.000314938884475,-0.00106004165537,-0.00446219475086
1487138108553398510,0.000303683791181,-0.00104961201616,-0.00459128110975
1487138108553451176,0.000278455749385,-0.00100946572667,-0.00472221396961
1487138108553612093,0.000275805031908,-0.000965971734572,-0.00447505948192
1487138108553670968,0.000189389528639,-0.000903152200941,-0.00460004097158
1487138108553719718,0.000134071907301,-0.000877173044259,-0.00467122800231
1487138108553775509,0.000109084331677,-0.000861779909689,-0.00446555384175
1487138108553828384,3.49466552474e-05,-0.000844346266504,-0.00454705480047
1487138108553884009,-1.06933746953e-05,-0.000842084629561,-0.00461046893494
1487138108553933801,-8.45559004797e-06,-0.00079842877752,-0.00436811601306
1487138108553986342,-4.41023314826e-05,-0.000817690295285,-0.00447871072677
1487138108554113134,-4.07245457243e-05,-0.000864153337048,-0.00459240192373
1487138108556390047,-8.476845484e-06,-0.000949166477561,-0.00472248601577
1487138108557364129,-1.75699798265e-05,-0.000923587145484,-0.0044684441909
1487138108594988241,4.14382425393e-05,-0.00101241550909,-0.00457421856811
1487138108595052074,0.000111269120853,-0.00109082504117,-0.00466579947752
1487138108595195449,0.000201312785622,-0.00116241325803,-0.00476733896946
1487138108595250407,0.000256570392523,-0.00123194467289,-0.00485898961716
1487138108595303866,0.000245045222415,-0.00118941835353,-0.00456861725723
1487138108595357741,0.000246719075315,-0.00125885348697,-0.00465586086267
1487138108595406157,0.000242234099613,-0.00120106901943,-0.00438491763206
1487138108595658407,0.000180377928565,-0.00124338413432,-0.00441863816036
1487138108595717032,0.000178609299367,-0.00120095308563,-0.00417936563461
1487138108595775407,0.00012371911266,-0.00118112234325,-0.00426983125888
1487138108633199644,8.54415858549e-05,-0.00115153493502,-0.00434174560434
1487138108633254852,8.92914032473e-05,-0.00109822813907,-0.00409107073487
1487138108633430602,1.40031438356e-05,-0.00105320556297,-0.00414900214417
1487138108633484560,-6.88981147365e-05,-0.0010076383149,-0.00418539080033
1487138108633544269,-0.000160587543202,-0.000953622782305,-0.00421950168743
1487138108633721143,-0.000184637466494,-0.000908166105195,-0.00399576829864
1487138108633937560,-0.00026558409699,-0.000881234916065,-0.00406345031675
1487138108633992476,-0.000296539831455,-0.000903239886334,-0.00415034166338
1487138108634109893,-0.000293441969564,-0.000857839683858,-0.00389903425175
1487138108634174893,-0.000277604839589,-0.000952374186795,-0.00400913343992
1487138108634294601,-0.000168679393211,-0.00111046257325,-0.00413260786792
1487138108634352142,-0.000180856517691,-0.0010674948036,-0.00390608638259
1487138108634404809,-2.45403763977e-05,-0.00122053559943,-0.00403761796872
1487138108634461101,0.000103586210413,-0.00129334032485,-0.00416337637148
1487138108673299753,0.000210931882659,-0.00132098634025,-0.00432998839008
1487138108673866585,0.000209836237153,-0.00126558547178,-0.0040687390134
1487138108673934085,0.000227013026102,-0.00127753393511,-0.00423629190979
1487138108674010918,0.000203036684166,-0.00128509852685,-0.00432976322139
1487138108674059335,0.000199672620353,-0.00122634226768,-0.00408283332787
1487138108674128126,0.000156388955485,-0.00121592235439,-0.0042234465468
1487138108674189793,8.58084993154e-05,-0.00114443511296,-0.004375363154
1487138108674275585,6.80116620481e-05,-0.0010935051652,-0.00415982899817
1487138108674348751,-7.55873864e-06,-0.00100674204933,-0.00433510978672
1487138108674427293,-7.58270328949e-05,-0.000897991841335,-0.0045183212394
1487138108674553792,-0.000120417944733,-0.000756247684151,-0.00471059332889
1487138108674647959,-0.000111931390547,-0.000699329407058,-0.00446046096063
1487138108674815542,-0.000187199987093,-0.000599200805397,-0.00470173062547
1487138108679373452,-0.00024134104863,-0.00059794112083,-0.00478704818389
1487138108679420535,-0.000233168868824,-0.000534708878738,-0.00452415928871
1487138108718023521,-0.000286606061696,-0.000600366705509,-0.00460246019802
1487138108718108229,-0.000296275381469,-0.000543818619656,-0.00437043496004
1487138108718164688,-0.000226781747353,-0.000747450601494,-0.00451634735418
1487138108718364896,-0.000177011053895,-0.000851122477123,-0.00462818468921
1487138108718423979,-0.000175081308333,-0.00080488125326,-0.00437049777655
1487138108718472479,-0.000118312773937,-0.000895076097656,-0.00449938170459
1487138108718521354,-5.46338582081e-05,-0.000971563774939,-0.00463895234239
1487138108718571479,-7.35228260794e-05,-0.00093456656802,-0.00443586805359
1487138108718634520,-4.09386863893e-05,-0.00100305200867,-0.00456044597391
1487138108718859520,-4.8862565287e-05,-0.00105072311518,-0.00465187322001
1487138108718925187,-7.38404417415e-05,-0.00109031778067,-0.00475834944007
1487138108718981895,-5.70501913718e-05,-0.00103355183062,-0.00449698402775
1487138108719042020,-6.2458505536e-05,-0.0010386418252,-0.00458151686843
1487138108758252421,-6.79831294326e-05,-0.00100356837356,-0.00465281583249
1487138108758341838,-8.80919019459e-05,-0.000899272924286,-0.00474112105948
1487138108758483379,-8.59148051037e-05,-0.000844974850364,-0.00447961463408
1487138108758582671,-0.00012263035967,-0.00072449451838,-0.00459332220746
1487138108758852295,-0.00013786962756,-0.000673097012083,-0.00468631156443
1487138108758931337,-0.000116580310145,-0.000608973808878,-0.00441401159765
1487138108759558961,-0.00010278390646,-0.000593022241457,-0.00460181597973
1487138108759630128,-7.84040731796e-05,-0.00060687502312,-0.00470702992942
1487138108759698336,-7.28306144534e-05,-0.000560920507756,-0.00446331617167
1487138108759849877,-1.78486040298e-05,-0.000593786019703,-0.00455582853931
1487138108759930752,3.76171891436e-05,-0.000626849286157,-0.00461579177161
1487138108759992752,9.36888588807e-05,-0.000679472755042,-0.00466748792749
1487138108760148168,0.000106314707311,-0.000629441241464,-0.00438986366884
1487138108798631321,0.00016326355885,-0.00071696044434,-0.00447009271994
1487138108798723696,0.00016460375743,-0.000677621874058,-0.00423095809336
1487138108798798654,0.000203116808612,-0.000776619505078,-0.00433980544423
1487138108798868571,0.000213824472706,-0.000806630786407,-0.00436964474414
1487138108798929446,0.000249480186334,-0.000867148504149,-0.00441259920424
1487138108799112029,0.000253213621015,-0.000876081438456,-0.00443632137643
1487138108799184404,0.000226933019922,-0.000841823617648,-0.00446661357762
1487138108799258112,0.000211077796946,-0.000783344497801,-0.00417587369621
1487138108799323112,0.000167351361491,-0.000718032940195,-0.00423556114276
1487138108799404320,0.000142872258905,-0.000690539343706,-0.00401184364443
1487138108799515820,6.92273321556e-06,-0.000541647946015,-0.00423932601481
1487138108799589736,-9.22788345949e-05,-0.00048878007172,-0.00434790105834
1487138108799688195,-9.09879493357e-05,-0.000436286318652,-0.00406632498791
1487138108805179145,-0.000221531225312,-0.000414465433078,-0.00417910794556
1487138108805232353,-0.00021405429999,-0.000369215504634,-0.00393720881296
1487138108843410673,-0.000301237362022,-0.000377254939176,-0.00402347623947
1487138108843458173,-0.000353058116412,-0.000386862778043,-0.00411408391074
1487138108843510923,-0.000362098826598,-0.000395431232684,-0.00421290476453
1487138108843568423,-0.000367431219551,-0.000366389481415,-0.00396760849038
1487138108843670006,-0.000346373963202,-0.00038812562221,-0.00407216927826
1487138108843718464,-0.0002982845145,-0.000423984102476,-0.00414127788775
1487138108844140380,-0.000289188929047,-0.000379223378829,-0.00388785697313
1487138108844187463,-0.000220994954843,-0.000462315362231,-0.0039831729124
1487138108844234672,-0.000175087659782,-0.00056493522067,-0.00406055783986
1487138108844285630,-0.00018758873865,-0.000538075279492,-0.00386142481151
1487138108844346713,-0.000140384379893,-0.000680926252549,-0.0039534994437
1487138108844402005,-0.000137788856221,-0.000737791443132,-0.00400470700305
1487138108883497198,-0.000190249658744,-0.000774025783247,-0.00410668895302
1487138108883598490,-0.000253028619001,-0.000735374175267,-0.00418073564117
1487138108883682573,-0.000216475487322,-0.000676371967829,-0.00388219123603
1487138108883751906,-0.00029556586901,-0.000584480436931,-0.00394373689645
1487138108883825031,-0.00030691037176,-0.000553590614465,-0.00374264069123
1487138108883915572,-0.000428251963012,-0.000395835496681,-0.0038476244946
1487138108884000656,-0.000462699349015,-0.000348373153145,-0.00389433421248
1487138108884092239,-0.000512426809582,-0.000291787487836,-0.00399113529002
1487138108884160364,-0.00052625732944,-0.000251469707758,-0.00376792042497
1487138108884286280,-0.000591682574498,-0.00016427399586,-0.00394740622392
1487138108884343655,-0.000606399754449,-0.000147776901953,-0.00399219639451
1487138108884405905,-0.000632839620742,-0.000139805977758,-0.00407294546051
1487138108884464405,-0.000653076633775,-0.000157958028653,-0.00418412958112
1487138108924438847,-0.000660013120491,-0.000202120911966,-0.00428770461161
1487138108924568097,-0.000667567971338,-0.000171529970215,-0.00400984446754
1487138108924666972,-0.000629825393332,-0.000254833326041,-0.00413336623407
1487138108924742680,-0.000560784557432,-0.000299749872637,-0.00413830903918
1487138108924846638,-0.000525617866501,-0.000330952817217,-0.00413871092681
1487138108924968138,-0.000524373522682,-0.000306331797339,-0.00383328391218
1487138108925134013,-0.000521579471748,-0.0003374585534,-0.0038202376434
1487138108925201346,-0.000494798978787,-0.00028978634741,-0.00351553330005
1487138108925291346,-0.000498992588685,-0.000296103824306,-0.00350663983028
1487138108925425471,-0.000505127468152,-0.000274591273387,-0.00350414019724
1487138108925573720,-0.000525498887001,-0.000234320041098,-0.00349845273553
1487138108925638762,-0.000492390171118,-0.000194552999038,-0.00320408226256
1487138108925708470,-0.00051141230113,-0.000160742952169,-0.00318642841364
1487138108925774554,-0.000522437071712,-0.000149779702475,-0.00317842979925
1487138108964337414,-0.000498319672186,-0.000123316049181,-0.00292502045316
1487138108964482622,-0.000506680676402,-0.000126624850257,-0.00297355710148
1487138108964542747,-0.000502228826708,-0.000111619072094,-0.00303129788206
1487138108964616831,-0.000477183068011,-5.95774736878e-05,-0.00309322839919
1487138108964704872,-0.000434555572997,-3.06507950602e-05,-0.00283071509752
1487138108964959372,-0.000408019642421,7.1135494017e-05,-0.00287120370287
1487138108965014038,-0.000432639489617,0.000151657064982,-0.0028729636275
1487138108965820704,-0.000404497958337,0.000184133226203,-0.00262287798067
1487138108965910579,-0.000469723414209,0.000235397183285,-0.00261650907268
1487138108966740036,-0.00051651923825,0.000243599965598,-0.00264482102207
1487138108966833661,-0.000473152404475,0.000271337515299,-0.00240815250258
1487138108966899327,-0.000520234653848,0.000247370616698,-0.00249675181354
1487138108966955202,-0.00053921196892,0.000191090362166,-0.00260690213885
1487138108967006744,-0.000547190649922,0.000127669098234,-0.0027234516896
1487138108970743655,-0.00053212154909,0.000138545192623,-0.00251608112768
1487138109003210441,-0.000541926084562,0.000110256472424,-0.00257600185719
1487138109003279150,-0.000558372889664,6.98055446704e-05,-0.00264688330682
1487138109003399733,-0.000577107026341,2.18188999841e-05,-0.00273091110543
1487138109003462983,-0.000599600687725,-6.02437138278e-06,-0.00281302919421
1487138109003545607,-0.000591459956114,7.57610562646e-06,-0.00259708834638
1487138109003625274,-0.00063367787692,4.76814300834e-07,-0.00271814967036
1487138109003705441,-0.000594044326355,1.55029551492e-05,-0.00249993696861
1487138109003803524,-0.000651837678124,1.79437767225e-05,-0.00261919807078
1487138109003881815,-0.000695120261987,2.96506354909e-05,-0.00271032951862
1487138109003967940,-0.000775026479836,0.000125001244456,-0.00284496362862
1487138109004044190,-0.000814902158403,0.000179782815629,-0.00288565267289
1487138109043194383,-0.000757976589419,0.000200294859577,-0.00264490385804
1487138109043324883,-0.000792767943413,0.000229490317698,-0.00265446732109
1487138109043427300,-0.000837221601678,0.000230714133766,-0.0026296117743
1487138109043509800,-0.000818678701408,0.000207351757394,-0.0024475800625
1487138109043607758,-0.000869645765341,0.000190814493132,-0.00242831971131
1487138109043692924,-0.000937928161413,0.0001828806201,-0.00244454382889
1487138109043764216,-0.000890162721036,0.000199450006441,-0.00224078024646
1487138109043828091,-0.00100404384682,0.000256075738186,-0.00245781531082
1487138109043896216,-0.0010403412096,0.000278723203314,-0.00257609222056
1487138109043966466,-0.0010626327652,0.000289571427206,-0.00269656614086
1487138109044044257,-0.00101303092567,0.000293440350133,-0.00248321939943
1487138109044122090,-0.00104662403027,0.000291363213591,-0.00260789920156
1487138109083197450,-0.00107041053881,0.000269973854529,-0.00264431010136
1487138109083325325,-0.00102209406197,0.000260765419613,-0.00247488370536
1487138109083409908,-0.00102767408587,0.000200403822822,-0.00245188589848
1487138109083500283,-0.00101292091864,0.000186504646725,-0.0024342792198
1487138109083587242,-0.000995212788973,0.000175443459261,-0.00229836308855
1487138109083671950,-0.000950948808637,0.000155875897196,-0.00225424849718
1487138109083793491,-0.000971203447051,0.00017170641043,-0.00223545605677
1487138109083862033,-0.00100801476584,0.000189044287914,-0.00224152021492
1487138109083933741,-0.0010620597623,0.000205205115167,-0.00228969536018
1487138109084061991,-0.00101555644219,0.000214508078059,-0.00207945308638
1487138109084150616,-0.00108847627585,0.00024128810893,-0.00219257335316
