%time,field.x,field.y,field.z
1487138115418592646,0.0,0.0,1.91905994163e-29
1487138115434883623,0.0,0.0,2.97004243299e-08
1487138115451225641,0.0,0.0,4.67618809281e-07
1487138115461074460,0.0,0.0,2.32936796058e-06
1487138115474536065,0.0,0.0,7.24345321602e-06
1487138115480159599,0.0,0.0,1.73984123864e-05
1487138115492725955,0.0,0.0,3.5491926427e-05
1487138115501165235,0.0,0.0,6.46818629897e-05
1487138115510893804,0.0,0.0,0.000108539215318
1487138115521266456,0.0,0.0,0.000171002899256
1487138115531996315,0.0,0.0,0.000256336371463
1487138115544974796,0.0,0.0,0.000369086032221
1487138115554196116,0.0,0.0,0.000514041376548
1487138115564379727,0.0,0.0,0.000696196857636
1487138115574884503,0.0,0.0,0.000920715426951
1487138115580930911,0.0,0.0,0.00119289371562
1487138115591303021,0.0,0.0,0.00151812882207
1487138115600509758,0.0,0.0,0.0019018866712
1487138115611168284,0.0,0.0,0.00234967191066
1487138115622129018,0.0,0.0,0.00286699931002
1487138115633483793,0.0,0.0,0.00345936662929
1487138115643145279,0.0,0.0,0.00413222892295
1487138115651172018,0.0,0.0,0.00489097424666
1487138115660416838,0.0,0.0,0.00574090073349
1487138115670819322,0.0,0.0,0.00668719500734
1487138115680196351,0.0,0.0,0.00773491190121
1487138115691374668,0.0,0.0,0.0088889554483
1487138115701644903,0.0,0.0,0.0101540611146
1487138115712362471,0.0,0.0,0.0115347792411
1487138115721683040,0.0,0.0,0.0130354596658
1487138115730811027,0.0,0.0,0.0146602374929
1487138115743554634,0.0,0.0,0.0164130199809
1487138115751042415,0.0,0.0,0.0182974745181
1487138115763630521,0.0,0.0,0.0203170176565
1487138115773215382,0.0,0.0,0.0224748051741
1487138115781408787,0.0,0.0,0.0247737231369
1487138115793206937,0.0,0.0,0.0272163799319
1487138115803150006,0.0,0.0,0.0298050992418
1487138115810494287,0.0,0.0,0.0325419139343
1487138115820340064,0.0,0.0,0.0354285608373
1487138115832834588,0.0,0.0,0.0384664763727
1487138115844429488,0.0,0.0,0.0416567930216
1487138115854710514,0.0,0.0,0.045000336594
1487138115864295417,0.0,0.0,0.0484976242761
1487138115877097649,0.0,0.0,0.0521488634291
1487138115890331046,0.0,0.0,0.0559539511132
1487138115905451899,0.0,0.0,0.0599124743122
1487138115910924016,0.0,0.0,0.064023710831
1487138115919393171,0.0,0.0,0.068286630844
1487138115926033786,0.0,0.0,0.0726998990662
1487138115932777360,0.0,0.0,0.0772618775263
1487138115941758180,0.0,0.0,0.0819706289141
1487138115954121120,0.0,0.0,0.0868239204805
1487138115963583898,0.0,0.0,0.0918192284668
1487138115973789550,0.0,0.0,0.0969537430377
1487138115985403658,0.0,0.0,0.102224373699
1487138115994162104,0.0,0.0,0.107627755171
1487138116009075207,0.0,0.0,0.113160253708
1487138116021289190,0.0,0.0,0.118817973822
1487138116027228139,0.0,0.0,0.124596765407
1487138116034940837,0.0,0.0,0.13049223124
1487138116049919023,0.0,0.0,0.136499734822
1487138116054081434,0.0,0.0,0.142614408561
1487138116063417587,0.0,0.0,0.148831162261
1487138116072868615,0.0,0.0,0.155144691897
1487138116086575845,0.0,0.0,0.161549488672
1487138116093718293,0.0,0.0,0.168039848313
1487138116101811740,0.0,0.0,0.174609880604
1487138116134081943,0.0,0.0,0.181253519137
1487138116162981818,0.0,0.0,0.187964531247
1487138116195471729,0.0,0.0,0.194736528136
1487138116222517731,0.0,0.0,0.201562975141
1487138116253138104,0.0,0.0,0.208437202158
1487138116280625356,0.0,0.0,0.215352414176
1487138116313549766,0.0,0.0,0.222301701929
1487138116336638858,0.0,0.0,0.229278052629
1487138116347161759,0.0,0.0,0.236274360779
1487138116356179413,0.0,0.0,0.243283439037
1487138116368691936,0.0,0.0,0.250298029131
1487138116375757218,0.0,0.0,0.25731081279
1487138116389722656,0.0,0.0,0.264314422695
1487138116399784683,0.0,0.0,0.271301453421
1487138116410928500,0.0,0.0,0.278264472361
1487138116418419323,0.0,0.0,0.285196030624
1487138116434688007,0.0,0.0,0.292088673878
1487138116448948862,0.0,0.0,0.298934953141
1487138116449004820,0.0,0.0,0.305727435495
1487138116458601931,0.0,0.0,0.312458714715
1487138116470740122,0.0,0.0,0.319121421799
1487138116476194947,0.0,0.0,0.325708235391
1487138116499140122,0.0,0.0,0.332211892077
1487138116499218872,0.0,0.0,0.338625196547
1487138116510756230,0.0,0.0,0.344941031613
1487138116519662051,0.0,0.0,0.351152368071
1487138116531010909,0.0,0.0,0.357252274395
1487138116538638815,0.0,0.0,0.363233926247
1487138116551311505,0.0,0.0,0.369090615809
1487138116557116997,0.0,0.0,0.374815760912
1487138116566760149,0.0,0.0,0.380402913953
1487138116580599421,0.0,0.0,0.385845770605
1487138116590075866,0.0,0.0,0.391138178296
1487138116603996762,0.0,0.0,0.396274144452
1487138116612791916,0.0,0.0,0.401247844501
1487138116620222322,0.0,0.0,0.406053629628
1487138116631866763,0.0,0.0,0.410686034268
1487138116644370662,0.0,0.0,0.415139783337
1487138116654075065,0.0,0.0,0.419409799188
1487138116668049919,0.0,0.0,0.423491208294
1487138116679241486,0.0,0.0,0.427379347636
1487138116684834353,0.0,0.0,0.431069770808
1487138116694927922,0.0,0.0,0.434558253823
1487138116707066821,0.0,0.0,0.437840800612
1487138116711788064,0.0,0.0,0.440913648223
1487138116718831471,0.0,0.0,0.443773271699
1487138116727795416,0.0,0.0,0.446416388646
1487138116736841070,0.0,0.0,0.448839963475
1487138116751633381,0.0,0.0,0.451041211321
1487138116756839041,0.0,0.0,0.453017601634
1487138116770390604,0.0,0.0,0.454766861434
1487138116776185429,0.0,0.0,0.456286978238
1487138116787906079,0.0,0.0,0.457576202642
1487138116796019359,0.0,0.0,0.458633050566
1487138116807488592,0.0,0.0,0.45945630516
1487138116816997953,0.0,0.0,0.46004501836
1487138116829833602,0.0,0.0,0.460398512106
1487138116856877646,0.0,0.0,0.460516379208
1487138116885597854,0.0,0.0,0.460398483867
1487138116914002896,0.0,0.0,0.46004496185
1487138116953376298,0.0,0.0,0.459456220316
1487138116980020717,0.0,0.0,0.458632937294
1487138117015990707,0.0,0.0,0.457576060816
1487138117045477206,0.0,0.0,0.4562868077
1487138117071518793,0.0,0.0,0.454766661995
1487138117100647334,0.0,0.0,0.453017373073
1487138117139538111,0.0,0.0,0.451040953386
1487138117172042064,0.0,0.0,0.448839675882
1487138117196618570,0.0,0.0,0.446416071079
1487138117228062066,0.0,0.0,0.443772923811
1487138117258780397,0.0,0.0,0.440913269633
1487138117266876218,0.0,0.0,0.437840390908
1487138117279276200,0.0,0.0,0.434557812561
1487138117289503477,0.0,0.0,0.431069297512
1487138117297719174,0.0,0.0,0.427378841796
1487138117312478652,0.0,0.0,0.42349066937
1487138117323348970,0.0,0.0,0.419409226606
1487138117333980954,0.0,0.0,0.415139176489
1487138117345305396,0.0,0.0,0.410685392515
1487138117355507090,0.0,0.0,0.406052952298
1487138117366931532,0.0,0.0,0.401247130887
1487138117379194681,0.0,0.0,0.396273393815
1487138117385279130,0.0,0.0,0.391137389863
1487138117398285111,0.0,0.0,0.385844943568
1487138117407442890,0.0,0.0,0.380402047472
1487138117422203910,0.0,0.0,0.374814854112
1487138117428755650,0.0,0.0,0.369089667781
1487138117441840715,0.0,0.0,0.363232936046
1487138117451138660,0.0,0.0,0.357251241042
1487138117462333893,0.0,0.0,0.351151290553
1487138117469912382,0.0,0.0,0.34493990888
1487138117479924035,0.0,0.0,0.338624027514
1487138117488407564,0.0,0.0,0.332210675625
1487138117500268380,0.0,0.0,0.325706970363
1487138117514615484,0.0,0.0,0.319120107001
1487138117520409351,0.0,0.0,0.312457348917
1487138117527401341,0.0,0.0,0.305726017432
1487138117541090696,0.0,0.0,0.298933481508
1487138117553208845,0.0,0.0,0.292087147334
1487138117563483455,0.0,0.0,0.285194447791
1487138117570527653,0.0,0.0,0.278262831822
1487138117579575890,0.0,0.0,0.271299753719
1487138117586334172,0.0,0.0,0.264312662338
1487138117599724861,0.0,0.0,0.257308990243
1487138117607808641,0.0,0.0,0.250296142821
1487138117619957415,0.0,0.0,0.243281487352
1487138117630555983,0.0,0.0,0.236272342066
1487138117641029010,0.0,0.0,0.229275965196
1487138117652876034,0.0,0.0,0.22229954404
1487138117665520307,0.0,0.0,0.215350184056
1487138117679159329,0.0,0.0,0.20843489799
1487138117690705063,0.0,0.0,0.201560595067
1487138117700449798,0.0,0.0,0.194734070252
1487138117712951114,0.0,0.0,0.187961993611
1487138117720979560,0.0,0.0,0.181250899759
1487138117731957169,0.0,0.0,0.174607177453
1487138117742678696,0.0,0.0,0.168037059313
1487138117756894592,0.0,0.0,0.161546611704
1487138117772261444,0.0,0.0,0.155141724794
1487138117780231100,0.0,0.0,0.148828102812
1487138117791346667,0.0,0.0,0.14261125451
1487138117801625652,0.0,0.0,0.136496483864
1487138117815944131,0.0,0.0,0.130488881026
1487138117833926188,0.0,0.0,0.124593313539
1487138117838845890,0.0,0.0,0.118814417853
1487138117855348074,0.0,0.0,0.113156591146
1487138117860447442,0.0,0.0,0.107623983471
1487138117873523464,0.0,0.0,0.102220490269
1487138117883990449,0.0,0.0,0.0969497452354
1487138117888741276,0.0,0.0,0.0918151135989
1487138117901551965,0.0,0.0,0.0868196858031
1487138117911979075,0.0,0.0,0.0819662716314
1487138117925779305,0.0,0.0,0.0772573947907
1487138117933908127,0.0,0.0,0.072695287977
1487138117952302642,0.0,0.0,0.0682818884474
1487138117965275373,0.0,0.0,0.0640188341196
1487138117977401106,0.0,0.0,0.0599074602239
1487138117983058139,0.0,0.0,0.0559487965309
1487138117989822504,0.0,0.0,0.0521435651802
1487138118005555023,0.0,0.0,0.0484921791318
1487138118015095634,0.0,0.0,0.0449947412685
1487138118022892956,0.0,0.0,0.0416510441719
1487138118036982728,0.0,0.0,0.0384605705976
1487138118044013384,0.0,0.0,0.0354224946769
1487138118053202496,0.0,0.0,0.0325356838694
1487138118060088902,0.0,0.0,0.0297987016933
1487138118071689886,0.0,0.0,0.02720981126
1487138118084687117,0.0,0.0,0.0247669796405
1487138118087457821,0.0,0.0,0.0224678830902
1487138118096852266,0.0,0.0,0.0203099131594
1487138118110075580,0.0,0.0,0.0182901837188
1487138118115146031,0.0,0.0,0.0164055389264
1487138118127655888,0.0,0.0,0.0146525621657
1487138118137326332,0.0,0.0,0.0130275859828
1487138118147508942,0.0,0.0,0.0115267030532
1487138118162379213,0.0,0.0,0.0101457782057
1487138118170521659,0.0,0.0,0.00888046153505
1487138118178161690,0.0,0.0,0.00772620263178
1487138118186411178,0.0,0.0,0.00667826596101
1487138118197316912,0.0,0.0,0.00573174741978
1487138118206854273,0.0,0.0,0.00488159210441
1487138118217962965,0.0,0.0,0.00412261332021
1487138118228195075,0.0,0.0,0.00344951286144
1487138118238996143,0.0,0.0,0.00285690260039
1487138118250420752,0.0,0.0,0.00233932740851
1487138118256999825,0.0,0.0,0.00189128945159
1487138118266485062,0.0,0.0,0.00150727388497
1487138118277523296,0.0,0.0,0.00118177598503
1487138118293668772,0.0,0.0,0.000909329750442
1487138118301573927,0.0,0.0,0.000684538004606
1487138118305742380,0.0,0.0,0.000502104038674
1487138118319609651,0.0,0.0,0.000356864821597
1487138118336311794,0.0,0.0,0.000243825820462
1487138118354493184,0.0,0.0,0.000158197459086
1487138118359679260,0.0,0.0,9.54332557939e-05
1487138118374389447,0.0,0.0,5.12696713173e-05
1487138118381352270,0.0,0.0,2.17677063148e-05
1487138118392168421,0.0,0.0,3.35628338632e-06
1487138118401308491,0.0,0.0,-7.12255027224e-06
1487138118413897640,0.0,0.0,-1.23665613927e-05
1487138118422107753,0.0,0.0,-1.45643748795e-05
1487138118429781158,0.0,0.0,-1.53445838436e-05
1487138118441343100,0.0,0.0,-1.57228897137e-05
1487138118454318540,-1.62742904519e-12,1.49048162806e-14,2.04375499249e-09
1487138118462987152,-2.56230828172e-11,2.34669120112e-13,3.21779334009e-08
1487138118475927967,-1.27637269891e-10,1.16896651526e-12,1.60289204831e-07
1487138118482166124,-3.96903627398e-10,3.63504367339e-12,4.98438793666e-07
1487138118492285110,-9.53342664253e-10,8.73119312225e-12,1.19722505598e-06
1487138118503698176,-1.94477329018e-09,1.78112150224e-11,2.442281667e-06
1487138118510724249,-3.54423025658e-09,3.24598489377e-11,4.45090881456e-06
1487138118520299069,-5.94738545231e-09,5.4469156762e-11,7.46883481549e-06
1487138118533390550,-9.37007101464e-09,8.58158381197e-11,1.17671055933e-05
1487138118540756456,-1.40459022324e-08,1.28639459715e-10,1.76390994767e-05
1487138118555143935,-2.02239982362e-08,1.85221580262e-10,2.5397664801e-05
1487138118561475218,-2.81667984859e-08,2.5796575278e-10,3.53723778136e-05
1487138118572425952,-3.81479730856e-08,3.49378386197e-10,4.79069184093e-05
1487138118588414679,-5.04504249701e-08,4.62050448374e-10,6.33565612396e-05
1487138118594524461,-6.53643820256e-08,5.98639992779e-10,8.20857797639e-05
1487138118603925656,-8.31855772256e-08,7.61855491258e-10,0.00010446596083
1487138118616075138,-1.04213514877e-07,9.54439955439e-10,0.000130873227397
1487138118626715706,-1.28749821092e-07,1.17915582952e-09,0.000161686367023
1487138118633416780,-1.57096676614e-07,1.43877063731e-09,0.000197284863784
1487138118640579770,-1.89555330149e-07,1.73604336655e-09,0.000238047031289
1487138118657687495,-2.26424690363e-07,2.07371157375e-09,0.000284348244481
1487138118663653028,-2.67999994737e-07,2.45447919283e-09,0.000336559267961
1487138118669905435,-3.14571553459e-07,2.88100503112e-09,0.000395044678549
1487138118681687377,-3.66423566596e-07,3.35589193639e-09,0.000460161379865
1487138118695841856,-4.23833012757e-07,3.88167661864e-09,0.000532257206691
1487138118704504094,-4.87068607509e-07,4.46082011081e-09,0.000611669616929
1487138118716039244,-5.56389829807e-07,5.09569885229e-09,0.000698724468981
1487138118730047057,-6.32046014729e-07,5.78859637974e-09,0.000793734882381
1487138118741715081,-7.14275510814e-07,6.54169560957e-09,0.000897000179571
1487138118754091689,-8.0330490032e-07,7.35707169668e-09,0.00100880490668
1487138118760982429,-8.99348280739e-07,8.2366854542e-09,0.00112941793126
1487138118772823120,-1.00260660593e-06,9.1823773192e-09,0.00125909161481
1487138118780805483,-1.11326708521e-06,1.01958618494e-08,0.00139806105824
1487138118794676296,-1.23150263885e-06,1.12787227363e-08,0.00154654341798
1487138118802992451,-1.3574714083e-06,1.24324083194e-08,0.00170473729096
1487138118810679398,-1.49131631965e-06,1.36582275883e-08,0.00187282216637
1487138118824892794,-1.63316469868e-06,1.49573466569e-08,0.00205095794227
1487138118831905909,-1.78312793599e-06,1.63307856974e-08,0.00223928450505
1487138118842927393,-1.94130120077e-06,1.77794163174e-08,0.00243792136991
1487138118855922291,-2.10776320152e-06,1.93039593694e-08,0.00264696738045
1487138118869015772,-2.28257599235e-06,2.0904983177e-08,0.00286650046538
1487138118884576499,-2.46578482339e-06,2.25829021642e-08,0.00309657745069
1487138118899411811,-2.6574180338e-06,2.43379758757e-08,0.00333723392523
1487138118909110547,-2.85748698594e-06,2.61703083745e-08,0.0035884841581
1487138118916559703,-3.06598603929e-06,2.80798480022e-08,0.00385032106587
1487138118926517397,-3.28289256274e-06,3.00663874926e-08,0.00412271622804
1487138118939148295,-3.50816698381e-06,3.21295644214e-08,0.00440561994881
1487138118955311897,-3.74175287344e-06,3.42688619836e-08,0.00469896136359
1487138118966805589,-3.98357706502e-06,3.64836100831e-08,0.00500264858848
1487138118981157401,-4.23354980628e-06,3.87729867241e-08,0.00531656891098
1487138118992826343,-4.49156494273e-06,4.11360196909e-08,0.00564058902045
1487138119000148040,-4.75750013139e-06,4.35715885058e-08,0.00597455527639
1487138119010558192,-5.03121708345e-06,4.60784266508e-08,0.00631829401326
1487138119020100470,-5.31256183461e-06,4.86551240439e-08,0.00667161187998
1487138119033665658,-5.60136504189e-06,5.13001297577e-08,0.0070342962126
1487138119036379030,-5.89744230558e-06,5.40117549676e-08,0.00740611543874
1487138119047826013,-6.20059451529e-06,5.67881761211e-08,0.00778681951199
1487138119065034405,-6.51060821859e-06,5.96274383141e-08,0.00817614037502
1487138119073587892,-6.82725601141e-06,6.25274588666e-08,0.00857379244974
1487138119089584202,-7.15029694875e-06,6.54860310837e-08,0.00897947315314
1487138119094495987,-7.47947697472e-06,6.85008281945e-08,0.00939286343731
1487138119103381682,-7.81452937065e-06,7.15694074562e-08,0.00981362835221
1487138119114372958,-8.15517522029e-06,7.4689214414e-08,0.0102414176298
1487138119119631242,-8.50112389083e-06,7.78575873074e-08,0.0106758662883
1487138119128963145,-8.85207352883e-06,8.10717616117e-08,0.0111165952548
1487138119140248546,-9.20771156988e-06,8.43288747054e-08,0.0115632120053
1487138119151103905,-9.56771526095e-06,8.76259706549e-08,0.0120153112208
1487138119160895724,-9.93175219444e-06,9.09600051053e-08,0.012472475458
1487138119171247376,-1.02994808529e-05,9.43278502689e-08,0.0129342758331
1487138119181241736,-1.06705511634e-05,9.77263000027e-08,0.0134002727185
1487138119191819221,-1.10446050607e-05,1.01152074966e-07,0.0138700164492
1487138119207906698,-1.14212770577e-05,1.04601827845e-07,0.0143430480403
1487138119214038272,-1.18001948233e-05,1.08072148646e-07,0.0148188999118
1487138119232144246,-1.21809797659e-05,1.11559570037e-07,0.0152970966214
1487138119232212329,-1.25632476212e-05,1.15060572734e-07,0.0157771556034
1487138119239920985,-1.29466090451e-05,1.18571590929e-07,0.0162585879125
1487138119246445767,-1.33306702088e-05,1.22089017741e-07,0.0167408989716
1487138119265855697,-1.37150333969e-05,1.25609210693e-07,0.0172235893225
1487138119276873348,-1.40992976063e-05,1.291284972e-07,0.0177061553786
1487138119291851409,-1.44830591464e-05,1.32643180061e-07,0.0181880901782
1487138119296346195,-1.48659122386e-05,1.36149542953e-07,0.0186688841372
1487138119309870300,-1.5247449615e-05,1.39643855913e-07,0.0191480258014
1487138119321000950,-1.56272631152e-05,1.43122380804e-07,0.0196250025959
1487138119332495059,-1.60049442808e-05,1.4658137676e-07,0.0200993015713
1487138119345462957,-1.63800849465e-05,1.50017105602e-07,0.0205704101466
1487138119357127523,-1.67522778273e-05,1.53425837209e-07,0.0210378168461
1487138119366545259,-1.71211171008e-05,1.56803854857e-07,0.0215010120309
1487138119381908821,-1.74861989843e-05,1.60147460503e-07,0.0219594886237
1487138119387897895,-1.78471223058e-05,1.63452980015e-07,0.0224127428256
1487138119399045754,-1.82034890681e-05,1.66716768337e-07,0.0228602748249
1487138119408926323,-1.8554905006e-05,1.69935214591e-07,0.0233015894964
1487138119417909977,-1.04078956311e-30,9.76105776522e-31,7.96976142061e-31
1487138119427922671,-1.61078292891e-09,1.51067467764e-09,1.2334438818e-09
1487138119438331822,-2.53609977711e-08,2.37848417966e-08,1.94199770539e-08
1487138119455666422,-1.26331735346e-07,1.1848036762e-07,9.67374951991e-08
1487138119467532488,-3.92843908811e-07,3.68429125164e-07,3.00817016528e-07
1487138119472394273,-9.43591423221e-07,8.8494833388e-07,7.22547429694e-07
1487138119485022754,-1.92488122636e-06,1.80525213806e-06,1.47396208518e-06
1487138119494656324,-3.50797818807e-06,3.28996149882e-06,2.68620565824e-06
1487138119509133553,-5.88655277228e-06,5.52071049022e-06,4.50757972456e-06
1487138119516674584,-9.27422948269e-06,8.69784710624e-06,7.10166550247e-06
1487138119535275390,-1.39022340801e-05,1.30382267008e-05,1.06455222288e-05
1487138119541872422,-2.00171375862e-05,1.87730961989e-05,1.53279596482e-05
1487138119556384943,-2.78786951055e-05,2.61460672335e-05,2.13478831085e-05
1487138119560642353,-3.77577775142e-05,3.54111763773e-05,2.89127097685e-05
1487138119568220259,-4.99343940812e-05,4.68310306555e-05,3.82368544362e-05
1487138119580160700,-6.46958041039e-05,6.06750365417e-05,4.95402835689e-05
1487138119587838772,-8.23347156582e-05,7.72177106525e-05,6.3047135981e-05
1487138119598440715,-0.000103147569578,9.67370703772e-05,7.8984408816e-05
1487138119612288445,-0.0001274329068,0.000119513102688,9.75807073521e-05
1487138119617672354,-0.000155489817218,0.0001458263094,0.000119065057228
1487138119635199995,-0.000187616468223,0.000175956327154,0.000143665777681
1487138119646855478,-0.000224108711101,0.000210180620434,0.000171609414411
1487138119653372261,-0.000265258763499,0.000248773245911,0.000203119730688
1487138119665049077,-0.000311353966175,0.000292003686459,0.000238416755344
1487138119673206315,-0.000362675612262,0.000340135753179,0.000277715886288
1487138119682673635,-0.000419497847296,0.000393426553796,0.000321227048219
1487138119696361157,-0.000482086638291,0.000452125525793,0.000369153903196
1487138119705184769,-0.000550698810124,0.000516473532695,0.000421693112765
1487138119714137048,-0.000625581147554,0.000586702021886,0.000479033650328
1487138119721361329,-0.000706969561173,0.000663032242406,0.000541356162487
1487138119728903568,-0.000795088315642,0.000745674521144,0.000608832378066
1487138119741116883,-0.000890149318559,0.000834827595903,0.000681624563567
1487138119755645696,-0.000992351468321,0.000930678003792,0.000759885023807
1487138119760432564,-0.00110188005938,0.00103339952345,0.000843755646489
1487138119771235715,-0.00121890624328,0.00114315266957,0.000933367489508
1487138119778599537,-0.00134358654393,0.00126008423831,0.00102884040975
1487138119793647182,-0.00147606242549,0.001384326902,0.00113028273225
1487138119804994208,-0.00161645991136,0.00151599885188,0.00123779095838
1487138119816291900,-0.00176488925281,0.00165520348725,0.00135144951214
1487138119825542136,-0.00192144464557,0.00180202914969,0.00147133052314
1487138119836858453,-0.00208620399303,0.00195654890106,0.00159749364529
1487138119842834236,-0.0022592287146,0.00211882034362,0.00172998590996
1487138119848032395,-0.00244056359755,0.00228888548122,0.00186884161265
1487138119863754622,-0.00263023669115,0.00246677061991,0.00201408223187
1487138119871294028,-0.00282825924152,0.00265248630694,0.00216571637925
1487138119880715931,-0.00303462566582,0.00284602730646,0.00232373977976
1487138119890661042,-0.00324931356439,0.003047372611,0.00248813528107
1487138119907822059,-0.00347228376951,0.00325648548707,0.00265887289082
1487138119915829630,-0.00370348042926,0.00347331355397,0.00283590984089
1487138119927795446,-0.0039428311254,0.0036977888942,0.00301919067759
1487138119934017312,-0.00419024702364,0.00392982819449,0.00320864737682
1487138119941248135,-0.00444562305529,0.00416933291608,0.00340419948311
1487138119953026243,-0.00470883812869,0.00441618949313,0.00360575427154
1487138119960710440,-0.00497975536949,0.00467026955789,0.00381320693171
1487138119969272511,-0.00525822238817,0.00493143019177,0.00402644077262
1487138119982802075,-0.00554407157382,0.00519951420076,0.00424532744763
1487138119988134151,-0.00583712041283,0.00547435041435,0.00446972719848
1487138120001354131,-0.00613717183135,0.00575575400666,0.0046994891175
1487138120009184578,-0.0064440145602,0.00604352683876,0.00493445142711
1487138120022249476,-0.00675742352124,0.00633745782095,0.00517444177561
1487138120029125008,-0.00707716023393,0.00663732329407,0.00541927754853
1487138120039316160,-0.00740297324092,0.00694288742867,0.00566876619451
1487138120052492224,-0.00773459855161,0.00725390264097,0.00592270556499
1487138120061967252,-0.00807176010255,0.00757011002467,0.00618088426671
1487138120089409587,-0.00841417023361,0.00789123979751,0.00644308202635
1487138120089518212,-0.00876153017877,0.00821701176157,0.00670907006636
1487138120089583295,-0.00911353057059,0.00854713577638,0.00697861149125
1487138120104490440,-0.00946985195724,0.00888131224381,0.00725146168348
1487138120134533897,-0.00983016533105,0.0092192326038,0.00752736870822
1487138120165255561,-0.0101941326677,0.00956057984002,0.00780607372623
1487138120191245856,-0.0105614074749,0.00990502899441,0.00808731141398
1487138120220185189,-0.0109316353496,0.0102522476899,0.0083708103904
1487138120254285598,-0.0113044545431,0.0106018966603,0.00865629364951
1487138120285130137,-0.0116794965327,0.0109536302862,0.00894347899815
1487138120308868561,-0.0120563865989,0.0113070971368,0.00923207949808
1487138120331729194,-0.0124347444078,0.0116619405157,0.00952180391194
1487138120343171719,-0.0128141845974,0.012017799011,0.00981235715215
1487138120352337831,-0.0131943173673,0.0123743070481,0.0101034407323
1487138120360834402,-0.0135747490698,0.0127310954443,0.0103947532201
1487138120369087057,-0.0139550828033,0.0130877919654,0.0106859906917
1487138120381836080,-0.0143349190063,0.0134440218823,0.0109768471863
1487138120389083570,-0.0147138560505,0.0137994085278,0.0112670151604
1487138120402145467,-0.0150914908335,0.014153573852,0.0115561859421
1487138120412402578,-0.0154674193695,0.0145061389768,0.0118440501827
1487138120422977187,-0.015841237378,0.0148567247476,0.012130298308
1487138120433594880,-0.0162125408683,0.0152049522816,0.0124146209656
1487138120438265832,-0.0165809267212,0.0155504435133,0.0126967094707
1487138120450414856,-0.0169459932649,0.0158928217347,0.0129762562466
1487138120461493465,-0.0173073408466,0.0162317121314,0.0132529552628
1487138120470666910,-0.0176645723974,0.0165667423123,0.0135265024674
1487138120480600437,-0.018017293991,0.0168975428335,0.0137965962148
1487138120497336829,-0.0183651153945,0.017223747715,0.0140629376877
1487138120506770274,-0.018707650612,0.0175449949508,0.0143252313133
1487138120512165350,-0.0190445184194,0.0178609270097,0.0145831851728
1487138120520179130,-0.0193753428899,0.0181711913288,0.0148365114037
1487138120533013028,-0.0196997539102,0.0184754407975,0.0150849265951
1487138120545984967,-0.0200173876863,0.0187733342317,0.0153281521751
1487138120556443577,-0.0203278872386,0.0190645368382,0.0155659147902
1487138120564376066,-0.0206309028857,0.0193487206685,0.015797946675
1487138120571319597,-0.0209260927167,0.0196255650615,0.0160239860145
1487138120582373706,-0.021213123051,0.0198947570752,0.016243777296
1487138120591489735,-0.0214916688852,0.0201559919055,0.0164570716515
1487138120599808181,-0.0217614143278,0.0204089732936,0.01666362719
1487138120612254996,-0.0220220530189,0.0206534139204,0.0168632093196
1487138120619798152,-0.0222732885374,0.0208890357876,0.0170555910587
1487138120630765053,-0.0225148347925,0.0211155705854,0.0172405533363
1487138120641017913,-0.0227464164016,0.0213327600467,0.0174178852811
1487138120652648938,-0.0229677690521,0.0215403562862,0.0175873844984
1487138120665036336,-0.0231786398483,0.0217381221264,0.0177488573362
1487138120677001944,-0.0233787876424,0.0219258314073,0.0179021191381
1487138120683515726,-0.0235679833493,0.022103269282,0.0180469944848
1487138120691924423,-0.0237460102449,0.0222702324963,0.0181833174222
1487138120699570411,-0.0239126642479,0.0224265296535,0.0183109316777
1487138120710639520,-0.0240677541848,0.022571981462,0.0184296908623
1487138120720932172,-0.0242111020369,0.022706420968,0.0185394586607
1487138120729167119,-0.0243425431713,0.022829693771,0.0186401090072
1487138120742160475,-0.0244619265527,0.0229416582236,0.0187315262485
1487138120753115459,-0.0245691149382,0.0230421856134,0.0188136052932
1487138120765587232,-0.0246639850545,0.0231311603294,0.0188862517463
1487138120775314593,-0.0247464277557,0.0232084800103,0.0189493820314
1487138120783074749,-0.0248163481642,0.023274055676,0.0190029234976
1487138120792509068,-0.0248736657917,0.0233278118418,0.0190468145127
1487138120801275056,-0.0249183146433,0.0233696866153,0.0190810045425
1487138120814497412,-0.0249502433014,0.0233996317759,0.0191054542154
1487138120829527890,-0.0249694149916,0.023417612836,0.0191201353731
1487138120864643714,-0.0249758076304,0.0234236090857,0.019125031106
1487138120891494175,-0.0249694138527,0.0234176136192,0.0191201357757
1487138120923384962,-0.0249502410217,0.0233996333434,0.0191054550217
1487138120953012419,-0.0249183112193,0.0233696889693,0.019081005754
1487138120986667995,-0.024873661218,0.0233278149855,0.0190468161323
1487138121019507740,-0.0248163424335,0.0232740596138,0.0190029255287
1487138121044875578,-0.0247464208592,0.0232084847478,0.0189493844786
1487138121073633494,-0.0246639769812,0.023131165873,0.0188862546149
1487138121107988778,-0.0245691056756,0.0230421919708,0.0188136085893
1487138121137024319,-0.0244619160863,0.0229416654036,0.0187315299794
1487138121165621736,-0.0243425314848,0.0228297017836,0.0186401131808
1487138121194390611,-0.0242110891122,0.022706429824,0.018539463286
1487138121223192778,-0.0240677400018,0.0225719911737,0.0184296959491
1487138121255534023,-0.0239126487849,0.022426540234,0.0183109372366
1487138121263422928,-0.023745993478,0.02227024396,0.0181833234649
1487138121274009162,-0.023567965253,0.0221032816443,0.0180470010237
1487138121287926559,-0.0233787681891,0.021925844685,0.0179021261867
1487138121295418340,-0.0231786190085,0.0217381363373,0.0177488649088
1487138121305140367,-0.0229677467943,0.0215403714491,0.0175873926102
1487138121318416890,-0.0227463926925,0.0213327761817,0.0174178939481
1487138121333831784,-0.0225148095967,0.0211155877139,0.0172405625756
1487138121333900076,-0.0222732618175,0.020889053932,0.0170556008882
1487138121348971971,-0.0220220247355,0.0206534331043,0.0168632197581
1487138121356916876,-0.0217613844393,0.0204089935419,0.0166636382572
1487138121368009693,-0.0214916373482,0.0201560132442,0.0164570833681
1487138121381026966,-0.0212130898196,0.0198947795316,0.0162437896836
1487138121393969239,-0.0209260577433,0.019625588664,0.0160239990955
1487138121405952555,-0.0206308661202,0.0193487454468,0.0157979604727
1487138121416926789,-0.0203278486289,0.0190645628234,0.015565929329
1487138121426978774,-0.020017347178,0.0187733614561,0.0153281674803
1487138121441002171,-0.0196997114467,0.0184754692945,0.0150849426926
1487138121452260571,-0.0193752984122,0.0181712211333,0.0148365283207
1487138121461289349,-0.0190444718663,0.0178609581577,0.0145832029374
1487138121470727752,-0.0187076019198,0.0175450274798,0.0143252499544
1487138121474290206,-0.0183650644973,0.0172237816639,0.014062957235
1487138121482706610,-0.0180172408203,0.0168975782422,0.0137966166992
1487138121495009009,-0.0176645168824,0.0165667792224,0.0135265239207
1487138121504169746,-0.0173072829137,0.0162317505857,0.0132529777175
1487138121514345106,-0.0169459328382,0.0158928617775,0.0129762797364
1487138121522292928,-0.0165808637221,0.0155504851902,0.0126967340301
1487138121535936616,-0.0162124752157,0.0152049956398,0.0124146466301
1487138121543943396,-0.0158411689878,0.0148567698355,0.0121303251139
1487138121551793593,-0.0154673481552,0.0145061858445,0.0118440781676
1487138121563821576,-0.0150914167056,0.0141536225509,0.0115562151442
1487138121572523813,-0.0147137789168,0.0137994591109,0.0112670456191
1487138121585036087,-0.0143348387717,0.0134440744042,0.0109768789416
1487138121593738949,-0.0139549993696,0.013087846482,0.010686023785
1487138121602377478,-0.013574662336,0.0127311520133,0.0103947876935
1487138121615530501,-0.0131942272294,0.0123743657286,0.0101034766289
1487138121622966907,-0.0128140909482,0.0120178598638,0.009812394516
1487138121635260597,-0.0124346471368,0.0116620036031,0.00952184278809
1487138121647314163,-0.0120562855927,0.011307162523,0.00923211993254
1487138121657093107,-0.0116793916745,0.0109536980368,0.00894352103789
1487138121663377390,-0.0113043457128,0.0106019668427,0.00865633734247
1487138121675279414,-0.0109315224235,0.0102523203733,0.00837085578549
1487138121683255986,-0.0105612903261,0.00990510424948,0.00808735856108
1487138121694878553,-0.0101940111657,0.00956065773941,0.00780612267622
1487138121702312459,-0.0098300393417,0.0092193132219,0.00752741951291
1487138121713906317,-0.00946972134282,0.00888139565677,0.00725151439568
1487138121728824170,-0.00911339518964,0.00854722206221,0.00697866616476
1487138121743492441,-0.00876138988601,0.00821710100013,0.00670912675593
1487138121752788177,-0.00841402487992,0.00789133207053,0.00644314078773
1487138121764256369,-0.00807160953487,0.0075702054158,0.00618094515663
1487138121773841188,-0.00773444261286,0.00725400123577,0.00592276864116
1487138121784060048,-0.00740281176994,0.00694298931467,0.00566883151561
1487138121793422868,-0.0070769930654,0.0066374285608,0.00541934517421
1487138121806393433,-0.00675725048558,0.00633756655992,0.00517451176654
1487138121813196840,-0.00644383548353,0.00604363914356,0.00493452384491
1487138121823904574,-0.00613698653537,0.00575586997292,0.00469956402478
1487138121833133144,-0.00583692871477,0.0054744701398,0.00446980465882
1487138121845908001,-0.00554387328632,0.00519963778527,0.00424540752561
1487138121860739062,-0.00525801731923,0.00493155773735,0.00402652353378
1487138121868221218,-0.00497954332235,0.00467040116874,0.00381329244257
1487138121876689248,-0.00470861890177,0.00441632527565,0.0036058425996
1487138121890112395,-0.00444539644207,0.00416947297895,0.00340429069684
1487138121894841013,-0.00419001281261,0.00392997264862,0.00320874154568
1487138121904814457,-0.00394258909992,0.00369793785284,0.00301928787197
1487138121915008400,-0.00370323036749,0.00347346713269,0.00283601013219
1487138121923772471,-0.0034720254443,0.00325664380381,0.00265897635139
1487138121934709955,-0.00324904674322,0.0030475357861,0.0024882419842
1487138121946561771,-0.00303435011064,0.0028461954627,0.00232384979972
1487138121960351710,-0.00282797470871,0.00265265956955,0.00216582979127
1487138121977023436,-0.00262994293137,0.00246694911663,0.00201419911213
1487138121984669341,-0.00244026035564,0.00228906934229,0.00186896203825
1487138121994546994,-0.00225891572951,0.0021190097019,0.00173010995897
1487138122005419644,-0.00208588099767,0.00195674389195,0.0015976213967
1487138122019594541,-0.00192111136673,0.00180222991125,0.0014714620569
1487138122027400029,-0.00176454541105,0.00165541016019,0.00135158490908
1487138122036063183,-0.00161610522087,0.00151621157963,0.00123793030029
1487138122042431507,-0.00147569659398,0.00138454583071,0.00113042610182
1487138122052838742,-0.00134320927255,0.00126030951689,0.00102898789058
1487138122063989435,-0.00121851722646,0.00114338444976,0.000933519166073
1487138122075087210,-0.00110147898472,0.0010336379598,0.000843911604191
1487138122082195950,-0.000991938016498,0.000930923253755,0.000760045348913
1487138122094333682,-0.000889723163175,0.000835079819827,0.000681789343222
1487138122103869835,-0.000794649123105,0.000745933882333,0.000609001700281
1487138122113079988,-0.000706516990571,0.00066329890715,0.000541530116126
1487138122123078766,-0.000625114850522,0.000586976159485,0.000479212325109
1487138122132754835,-0.000550218430728,0.000516755315525,0.000421876599236
1487138122143111112,-0.000481591812878,0.000452415129312,0.000369342292724
1487138122158178465,-0.000418988204379,0.000393724156601,0.000321420432997
1487138122169130157,-0.000362150772364,0.000340441537047,0.0002779143593
1487138122178370561,-0.00031081354171,0.000292317836371,0.000238620410371
1487138122190918459,-0.000264702358611,0.000249095950091,0.000203328662275
1487138122195421952,-0.000223535921544,0.000210512070403,0.000171823717872
1487138122203539066,-0.000187026881201,0.000176296717743,0.000143885549071
1487138122215009174,-0.000154883011263,0.000146175838826,0.000119290393346
1487138122223759786,-0.000126808451583,0.000119871972558,9.78117056962e-05
1487138122237278225,-0.000102505025802,9.71054857333e-05,7.92211675962e-05
1487138122244704298,-8.16736348854e-05,7.75958800361e-05,6.32897540838e-05
1487138122256509406,-6.40157286149e-05,6.10631720144e-05,4.97888605571e-05
1487138122263903812,-4.92348566929e-05,4.72293478295e-05,3.84914905096e-05
1487138122279055831,-3.70383014543e-05,3.58198944714e-05,2.91735057507e-05
1487138122291040397,-2.71387938335e-05,2.65654091081e-05,2.16149404531e-05
1487138122296934014,-1.92563146388e-05,1.92032884057e-05,1.56013803725e-05
1487138122306256250,-1.31199829116e-05,1.34794995148e-05,1.09254089389e-05
1487138122313826323,-8.47003328897e-06,9.15043454963e-06,7.38812133605e-06
1487138122324735348,-5.05988432575e-06,5.98485040371e-06,4.80070834463e-06
1487138122335421583,-2.65829967105e-06,3.76589556961e-06,2.9861112294e-06
1487138122343551405,-1.0516440625e-06,2.29322593093e-06,1.78074924584e-06
1487138122353201724,-4.62360887354e-08,1.3852113474e-06,1.03632127235e-06
1487138122365513956,5.29200225863e-07,8.81234825556e-07,6.21683059698e-07
1487138122376477232,8.20983126815e-07,6.44086247448e-07,4.24801656074e-07
1487138122388002840,9.47817988539e-07,5.62452427744e-07,3.54788537216e-07
1487138122398796408,9.9803738518e-07,5.53505593359e-07,3.44013042941e-07
1487138122411626598,1.02673425584e-06,5.6559202033e-07,3.50297566953e-07
1487138122420381668,1.02673425317e-06,5.65592017665e-07,3.5029756873e-07
1487138122455894950,1.02673425317e-06,5.65592017665e-07,3.5029756873e-07
1487138122455969950,1.02673425317e-06,5.65592017665e-07,3.5029756873e-07
1487138122461188151,1.02673425317e-06,5.65592017665e-07,3.5029756873e-07
1487138122470888095,1.02673425317e-06,5.65592017665e-07,3.5029756873e-07
1487138122487144530,1.02673425317e-06,5.65592017665e-07,3.5029756873e-07
1487138122494441394,1.02673425317e-06,5.65592017665e-07,3.5029756873e-07
1487138122499164387,1.02673425317e-06,5.65592017665e-07,3.5029756873e-07
1487138122513202325,1.02673425317e-06,5.65592017665e-07,3.5029756873e-07
1487138122517316611,1.02673425317e-06,5.65592017665e-07,3.5029756873e-07
1487138122528532012,1.02673425317e-06,5.65592017665e-07,3.5029756873e-07
1487138122540710077,1.02673425317e-06,5.65592017665e-07,3.5029756873e-07
1487138122550262022,1.02673425317e-06,5.65592017665e-07,3.5029756873e-07
1487138122560138382,1.02673425317e-06,5.65592017665e-07,3.5029756873e-07
1487138122575024777,1.02673425317e-06,5.65592017665e-07,3.5029756873e-07
1487138122582315059,1.02673425317e-06,5.65592017665e-07,3.5029756873e-07
1487138122593267709,1.02673425317e-06,5.65592017665e-07,3.5029756873e-07
1487138122604250652,1.02673425317e-06,5.65592017665e-07,3.5029756873e-07
1487138122613720471,1.02673425317e-06,5.65592017665e-07,3.5029756873e-07
1487138122626555286,1.02673425317e-06,5.65592017665e-07,3.5029756873e-07
1487138122637452479,1.02673425317e-06,5.65592017665e-07,3.5029756873e-07
1487138122645338092,1.02673425317e-06,5.65592017665e-07,3.5029756873e-07
1487138122655599494,1.02673425317e-06,5.65592017665e-07,3.5029756873e-07
1487138122665526313,1.02673425317e-06,5.65592017665e-07,3.5029756873e-07
1487138122676358464,1.02673425317e-06,5.65592017665e-07,3.5029756873e-07
1487138122688971779,1.02673425317e-06,5.65592017665e-07,3.5029756873e-07
1487138122701692719,1.02673425317e-06,5.65592017665e-07,3.5029756873e-07
1487138122706090379,1.02673425317e-06,5.65592017665e-07,3.5029756873e-07
1487138122716032198,1.02673425317e-06,5.65592017665e-07,3.5029756873e-07
1487138122730069511,1.02673425317e-06,5.65592017665e-07,3.5029756873e-07
1487138122738765624,1.02673425317e-06,5.65592017665e-07,3.5029756873e-07
1487138122745763780,1.02673425317e-06,5.65592017665e-07,3.5029756873e-07
1487138122757284847,1.02673425317e-06,5.65592017665e-07,3.5029756873e-07
1487138122771158202,1.02673425317e-06,5.65592017665e-07,3.5029756873e-07
1487138122781182312,1.02673425317e-06,5.65592017665e-07,3.5029756873e-07
1487138122787675803,1.02673425317e-06,5.65592017665e-07,3.5029756873e-07
1487138122795640416,1.02673425317e-06,5.65592017665e-07,3.5029756873e-07
1487138122805126944,1.02673425317e-06,5.65592017665e-07,3.5029756873e-07
1487138122823178293,1.02673425317e-06,5.65592017665e-07,3.5029756873e-07
1487138122835612900,1.02673425317e-06,5.65592017665e-07,3.5029756873e-07
1487138122846645801,1.02673425317e-06,5.65592017665e-07,3.5029756873e-07
1487138122859997198,1.02673425317e-06,5.65592017665e-07,3.5029756873e-07
1487138122869478434,1.02673425317e-06,5.65592017665e-07,3.5029756873e-07
1487138122875680842,1.02673425317e-06,5.65592017665e-07,3.5029756873e-07
1487138122894395898,1.02673425317e-06,5.65592017665e-07,3.5029756873e-07
1487138122897777143,1.02673425317e-06,5.65592017665e-07,3.5029756873e-07
1487138122905515840,1.02673425317e-06,5.65592017665e-07,3.5029756873e-07
1487138122918997487,1.02673425317e-06,5.65592017665e-07,3.5029756873e-07
1487138122925389645,1.02673425317e-06,5.65592017665e-07,3.5029756873e-07
1487138122938863250,1.02673425317e-06,5.65592017665e-07,3.5029756873e-07
1487138122945468491,1.02673425317e-06,5.65592017665e-07,3.5029756873e-07
1487138122958502889,1.02673425317e-06,5.65592017665e-07,3.5029756873e-07
1487138122971171287,1.02673425317e-06,5.65592017665e-07,3.5029756873e-07
1487138122988980928,6.74160527552e-32,2.44572132118e-30,0.0
1487138122989038011,-1.17668622663e-05,-5.21935395483e-05,5.5416405561e-06
1487138123004301864,-4.69528833413e-05,-0.00020769384771,2.20778073021e-05
1487138123009679648,-0.00010538638517,-0.000464885990876,4.94757684537e-05
1487138123022364004,-0.000186895917072,-0.000822162411594,8.76033263583e-05
1487138123029971327,-0.00029131025574,-0.00127792292857,0.000136328817495
1487138123040712728,-0.000418458405243,-0.00183057473665,0.000195521112476
1487138123047353926,-0.000568169597024,-0.00247853240686,0.000265049616044
1487138123059432409,-0.000740273289898,-0.00322021788635,0.000344784267074
1487138123066023566,-0.000934599170058,-0.00405406049846,0.000434595538573
1487138123079313463,-0.00115097715107,-0.00497849694267,0.000534354437681
1487138123089494074,-0.00138923737387,-0.0059919712946,0.000643932505668
1487138123096638355,-0.00164921020678,-0.00709293500605,0.000763201817938
1487138123109311337,-0.00193072624548,-0.00827984690495,0.000892034984024
1487138123119842863,-0.00223361631303,-0.00955117319542,0.00103030514759
1487138123127471144,-0.00255771145988,-0.0109053874577,0.00117788598645
1487138123137117546,-0.00290284296384,-0.0123409706482,0.00133465171251
1487138123150915943,-0.00326884233009,-0.0138564110995,0.00150047707185
1487138123163937008,-0.00365554129119,-0.0154502045203,0.00167523734467
1487138123167257711,-0.00406277180708,-0.0171208539955,0.00185880834527
1487138123177625446,-0.00449036606506,-0.0188668699861,0.00205106642214
1487138123194270630,-0.00493815647982,-0.0206867703293,0.00225188845784
1487138123197259959,-0.00540597569343,-0.0225790802384,0.00246115186912
1487138123208260860,-0.0058936565753,-0.024542332303,0.00267873460681
1487138123217117305,-0.00640103222225,-0.0265750664886,0.00290451515592
1487138123229629829,-0.00692793595846,-0.0286758301372,0.00313837253555
1487138123239931189,-0.00747420133548,-0.0308431779666,0.00338018629895
1487138123245567181,-0.00803966213225,-0.0330756720711,0.00362983653351
1487138123259855410,-0.00862415235506,-0.0353718819207,0.00388720386074
1487138123273379224,-0.0092275062376,-0.0377303843621,0.00415216943628
1487138123289622784,-0.00984955824092,-0.0401497636177,0.00442461494992
1487138123291773531,-0.0104901430534,-0.0426286112863,0.00470442262557
1487138123303232972,-0.011149095591,-0.0451655263428,0.00499147522125
1487138123312635875,-0.0118262509967,-0.0477591151382,0.00528565602916
1487138123321384321,-0.0125214446411,-0.0504079913998,0.00558684887558
1487138123333326054,-0.0132345121223,-0.0531107762309,0.00589493812097
1487138123340776960,-0.0139652892653,-0.0558660981111,0.00620980865989
1487138123348843490,-0.014713612123,-0.0586725928959,0.00653134592104
1487138123363397135,-0.0154793169754,-0.0615289038172,0.00685943586725
1487138123367330380,-0.0162622403299,-0.0644336814831,0.00719396499549
1487138123380642944,-0.0170622189213,-0.0673855838776,0.00753482033685
1487138123385088979,-0.0178790897117,-0.070383276361,0.00788188945657
1487138123395265464,-0.0187126898908,-0.0734254316698,0.008235060454
1487138123405616407,-0.0195628568754,-0.0765107299165,0.00859422196263
1487138123417288640,-0.0204294283098,-0.07963785859,0.0089592631501
1487138123424552422,-0.0213122420657,-0.0828055125552,0.00933007371816
1487138123435978530,-0.0222111362422,-0.086012394053,0.00970654390269
1487138123446861848,-0.0231259491656,-0.0892572127008,0.0100885644737
1487138123458019748,-0.0240565193898,-0.0925386854919,0.0104760267354
1487138123466275070,-0.0250026856959,-0.0958555367959,0.010868822526
1487138123479796633,-0.0259642870924,-0.0992064983584,0.011266844218
1487138123491970574,-0.0269411628153,-0.102590309301,0.0116699847178
1487138123500519645,-0.0279331523279,-0.106005716123,0.0120781374663
1487138123511466212,-0.0289400953208,-0.109451472696,0.0124911964381
1487138123522940154,-0.029961831712,-0.112926340273,0.0129090561422
1487138123535442844,-0.030998201647,-0.116429087479,0.0133316116218
1487138123543630374,-0.0320490454986,-0.119958490317,0.013758758454
1487138123561765514,-0.0331142038669,-0.123513332165,0.0141903927501
1487138123571415375,-0.0341935175794,-0.12709240378,0.0146264111557
1487138123576396035,-0.0352868276911,-0.13069450329,0.0150667108502
1487138123586778145,-0.0363939754843,-0.134318436205,0.0155111895476
1487138123601310666,-0.0375148024686,-0.137963015408,0.0159597454956
1487138123609010654,-0.038649150381,-0.141627061157,0.0164122774762
1487138123621516886,-0.0397968611859,-0.145309401089,0.0168686848056
1487138123629994291,-0.0409577770752,-0.149008870215,0.017328867334
1487138123638067904,-0.042131740468,-0.152724310924,0.0177927254458
1487138123651121385,-0.0433185940107,-0.156454572979,0.0182601600596
1487138123660116539,-0.0445181805774,-0.160198513521,0.018731072628
1487138123679655885,-0.0457303432693,-0.163954997067,0.0192053651377
1487138123697782026,-0.046954925415,-0.167722895509,0.0196829401098
1487138123718330246,-0.0481917705707,-0.171501088116,0.0201637005993
1487138123739132257,-0.0494407225195,-0.175288461533,0.0206475501953
1487138123754158152,-0.0507016252725,-0.179083909781,0.0211343930212
1487138123775468788,-0.0519743230676,-0.182886334257,0.0216241337345
1487138123793732387,-0.0532586603705,-0.186694643735,0.0221166775266
1487138123814584857,-0.054554481874,-0.190507754363,0.0226119301234
1487138123822302679,-0.0558616324985,-0.194324589669,0.0231097977846
1487138123834320578,-0.0571799573914,-0.198144080554,0.0236101873043
1487138123844974854,-0.058509301928,-0.201965165295,0.0241130060106
1487138123862193538,-0.0598495117105,-0.205786789548,0.0246181617656
1487138123867193030,-0.0612004325688,-0.209607906342,0.0251255629659
1487138123874995561,-0.0625619105599,-0.213427476083,0.0256351185418
1487138123882659133,-0.0639337919685,-0.217244466556,0.026146737958
1487138123896801071,-0.0653159233064,-0.221057852917,0.0266603312133
1487138123905866058,-0.0667081513128,-0.224866617703,0.0271758088406
1487138123915247669,-0.0681103229545,-0.228669750825,0.027693081907
1487138123925283529,-0.0695222854254,-0.232466249569,0.0282120620135
1487138123938177427,-0.0709438861469,-0.236255118599,0.0287326612955
1487138123944646960,-0.0723749727678,-0.240035369955,0.0292547924224
1487138123956155485,-0.0738153931643,-0.243806023053,0.0297783685978
1487138123965088222,-0.0752649954397,-0.247566104684,0.0303033035594
1487138123972380920,-0.0767236279252,-0.251314649016,0.0308295115789
1487138123983833695,-0.0781911391788,-0.255050697595,0.0313569074625
1487138123994070513,-0.0796673779863,-0.258773299339,0.03188540655
1487138124005658496,-0.0811521933606,-0.262481510545,0.0324149247158
1487138124014602192,-0.0826454345421,-0.266174394887,0.0329453783682
1487138124024247469,-0.0841469509987,-0.269851023413,0.0334766844498
1487138124034808746,-0.0856565924254,-0.273510474548,0.034008760437
1487138124042644484,-0.0871742087447,-0.277151834093,0.0345415243407
1487138124056619173,-0.0886996501066,-0.280774195226,0.0350748947058
1487138124066744699,-0.0902327668882,-0.284376658499,0.0356087906111
1487138124074929313,-0.0917734096943,-0.287958331843,0.03614313167
1487138124085361506,-0.0933214293568,-0.291518330564,0.0366778380297
1487138124093144120,-0.0948766769351,-0.295055777342,0.0372128303716
1487138124103413646,-0.096439003716,-0.298569802237,0.0377480299112
1487138124116379503,-0.0980082612135,-0.302059542682,0.0382833583981
1487138124125900655,-0.0995843011693,-0.305524143488,0.0388187381163
1487138124140478634,-0.101166975552,-0.308962756842,0.0393540918836
1487138124149850787,-0.102756136558,-0.312374542306,0.0398893430522
1487138124157282568,-0.104351636612,-0.315758666819,0.0404244155081
1487138124165967306,-0.105953328363,-0.319114304695,0.0409592336717
1487138124174049252,-0.10756106469,-0.322440637627,0.0414937224976
1487138124183063739,-0.1091746987,-0.325736854681,0.0420278074742
1487138124204585458,-0.110794083724,-0.329002152302,0.0425614146244
1487138124204643750,-0.112419073325,-0.332235734307,0.0430944705049
1487138124214703985,-0.114049521289,-0.335436811894,0.0436269022069
1487138124225337470,-0.115685281632,-0.338604603635,0.0441586373553
1487138124232190960,-0.117326208596,-0.341738335476,0.0446896041094
1487138124242963111,-0.118972156652,-0.344837240744,0.0452197311627
1487138124253961178,-0.120622980497,-0.347900560137,0.0457489477427
1487138124263430415,-0.122278535055,-0.350927541733,0.0462771836109
1487138124272831651,-0.123938675479,-0.353917440984,0.0468043690633
1487138124283630635,-0.125603257148,-0.356869520719,0.0473304349296
1487138124292425789,-0.127272135669,-0.359783051143,0.047855312574
1487138124305120687,-0.128945166877,-0.362657309838,0.0483789338947
1487138124325162408,-0.130622206832,-0.365491581761,0.0489012313238
1487138124355337115,-0.132303111825,-0.368285159244,0.049422137828
1487138124383326116,-0.13398773837,-0.371037341998,0.0499415869077
1487138124390738480,-0.135675943213,-0.373747437109,0.0504595125977
1487138124414274529,-0.137367583324,-0.376414759039,0.0509758494667
1487138124432401336,-0.139062515901,-0.379038629625,0.0514905326179
1487138124454085263,-0.140760598371,-0.381618378082,0.0520034976882
1487138124476941105,-0.142461688387,-0.384153341,0.0525146808489
1487138124494448871,-0.144165643829,-0.386642862347,0.0530240188054
1487138124511116056,-0.145872322805,-0.389086293464,0.0535314487971
1487138124530003862,-0.147581583651,-0.39148299307,0.0540369085978
1487138124548147252,-0.149293284929,-0.393832327261,0.0545403365151
1487138124569543221,-0.15100728543,-0.396133669508,0.0550416713909
1487138124587950028,-0.152723444171,-0.398386400658,0.0555408526014
1487138124598955845,-0.154441620397,-0.400589908935,0.0560378200566
1487138124609356330,-0.15616167358,-0.402743589938,0.0565325142008
1487138124619307607,-0.15788346342,-0.404846846643,0.0570248760124
1487138124628315553,-0.159606849844,-0.406899089402,0.0575148470041
1487138124638523704,-0.161331693005,-0.408899735943,0.0580023692224
1487138124648459607,-0.163057853286,-0.410848211371,0.0584873852483
1487138124662793836,-0.164785191297,-0.412743948166,0.0589698381966
1487138124677272690,-0.166513567872,-0.414586386184,0.0594496717164
1487138124684902429,-0.168242844077,-0.416374972658,0.059926829991
1487138124699085742,-0.169972881202,-0.418109162198,0.0604012577376
1487138124704816108,-0.171703540767,-0.419788416788,0.0608729002079
1487138124720382836,-0.173434684516,-0.421412205789,0.0613417031873
1487138124720453961,-0.175166174424,-0.422980005939,0.0618076129956
1487138124735297189,-0.176897872691,-0.424491301352,0.0622705764867
1487138124738258560,-0.178629641745,-0.425945583516,0.0627305410486
1487138124749123836,-0.180361344242,-0.427342351299,0.0631874546034
1487138124759036446,-0.182092843064,-0.428681110941,0.0636412656075
1487138124771272512,-0.183824001322,-0.429961376061,0.0640919230511
1487138124779738041,-0.185554682353,-0.431182667654,0.0645393764589
1487138124789526361,-0.187284749723,-0.432344514089,0.0649835758894
1487138124803060924,-0.189014067224,-0.433446451114,0.0654244719355
1487138124812445286,-0.190742498875,-0.434488021851,0.0658620157242
1487138124821185981,-0.192469908923,-0.435468776798,0.0662961589164
1487138124832022966,-0.194196161843,-0.436388273832,0.0667268537074
1487138124839702580,-0.195921122338,-0.437246078204,0.0671540528265
1487138124847033194,-0.197644655335,-0.43804176254,0.0675777095371
1487138124858706844,-0.199366625992,-0.438774906844,0.0679977776369
1487138124875060320,-0.201086899692,-0.439445098496,0.0684142114575
1487138124885643180,-0.202805342047,-0.440051932253,0.0688269658648
1487138124897109830,-0.204521818896,-0.440595010245,0.0692359962589
1487138124911629184,-0.206236196305,-0.441073941981,0.0696412585737
1487138124911807808,-0.207948340567,-0.441488344345,0.0700427092775
1487138124920389546,-0.209658118203,-0.441837841598,0.0704403053728
1487138124929245158,-0.211365395961,-0.442122065377,0.0708340043961
1487138124938434562,-0.213070040817,-0.442340654694,0.0712237644179
1487138124951134210,-0.214771919974,-0.442493255938,0.0716095440431
1487138124958582407,-0.216470900862,-0.442579522874,0.0719913024105
1487138124970180182,-0.218166851139,-0.442599116644,0.0723689991933
1487138124977524547,-0.219859638689,-0.442551705765,0.0727425945985
1487138124992743191,-0.221549131627,-0.44243696613,0.0731120493675
1487138124999371598,-0.22323519829,-0.44225458101,0.0734773247757
1487138125008715293,-0.224917707247,-0.442004241049,0.0738383826327
1487138125019846235,-0.226596527292,-0.441685644271,0.0741951852822
1487138125028868722,-0.228271527446,-0.441298496073,0.0745476956019
1487138125041949412,-0.229942576961,-0.440842509229,0.074895877004
1487138125054277352,-0.231609545311,-0.440317403891,0.0752396934344
1487138125057855055,-0.233272302201,-0.439722907584,0.0755791093733
1487138125074830572,-0.234930717563,-0.439058755212,0.0759140898353
1487138125077940776,-0.236584661555,-0.438324689054,0.0762446003686
1487138125088150678,-0.238234004564,-0.437520458764,0.0765706070561
1487138125103504072,-0.239878617202,-0.436645821374,0.0768920765143
1487138125110831270,-0.241518370312,-0.435700541291,0.0772089758942
1487138125119285674,-0.243153134962,-0.4346843903,0.0775212728809
1487138125133448821,-0.244782782446,-0.433597147559,0.0778289356934
1487138125143928180,-0.246407184289,-0.432438599604,0.078131933085
1487138125156816995,-0.24802621224,-0.431208540348,0.0784302343432
1487138125167114814,-0.249639738278,-0.429906771079,0.0787238092895
1487138125179188004,-0.251247634608,-0.428533100461,0.0790126282796
1487138125184227830,-0.252849773662,-0.427087344535,0.0792966622033
1487138125191191695,-0.2544460281,-0.425569326716,0.0795758824845
1487138125200943723,-0.256036270809,-0.4239788778,0.0798502610813
1487138125212444290,-0.257620374905,-0.422315835953,0.0801197704859
1487138125217982948,-0.259198213729,-0.420580046721,0.0803843837247
1487138125236983212,-0.260769660851,-0.418771363026,0.080644074358
1487138125244101202,-0.262334590067,-0.416889645165,0.0808988164806
1487138125255815227,-0.263892875402,-0.414934760812,0.0811485847212
1487138125268786625,-0.265444391107,-0.412906585016,0.0813933542425
1487138125277956570,-0.266989011662,-0.410805000203,0.0816331007416
1487138125292063299,-0.268526611772,-0.408629896175,0.0818678004497
1487138125301353202,-0.270057066372,-0.406381170111,0.082097430132
1487138125313745768,-0.271580250621,-0.404058726565,0.0823219670879
1487138125324795418,-0.27309603991,-0.401662477467,0.0825413891509
1487138125334915945,-0.274604309853,-0.399192342125,0.0827556746886
1487138125345420764,-0.276104936294,-0.39664824722,0.0829648026029
1487138125355558749,-0.277597795303,-0.394030126812,0.0831687523297
1487138125364595611,-0.279082763178,-0.391337922337,0.083367503839
1487138125372935182,-0.280559716445,-0.388571582604,0.083561037635
1487138125385903747,-0.282028531857,-0.385731063803,0.083749334756
1487138125404525636,-0.283489086392,-0.382816329496,0.0839323767745
1487138125409941753,-0.284941257259,-0.379827350624,0.0841101457971
1487138125415068038,-0.286384921893,-0.376764105501,0.0842826244644
1487138125421208279,-0.287819957956,-0.373626579821,0.0844497959514
1487138125428888518,-0.289246243337,-0.370414766651,0.0846116439669
1487138125441220208,-0.290663656153,-0.367128666437,0.0847681527541
1487138125452455733,-0.292072074749,-0.363768286997,0.0849193070902
1487138125459197099,-0.293471377695,-0.36033364353,0.0850650922867
1487138125469216917,-0.294861443793,-0.356824758608,0.0852054941889
1487138125486009393,-0.296242152066,-0.35324166218,0.0853404991766
1487138125490797511,-0.297613381771,-0.349584391571,0.0854700941635
1487138125504491491,-0.298975012387,-0.345852991483,0.0855942665975
1487138125514478269,-0.300326923623,-0.342047513992,0.0857130044606
1487138125526293418,-0.301668995416,-0.338168018553,0.085826296269
1487138125537357652,-0.303001107928,-0.334214571996,0.085934131073
1487138125548818219,-0.30432314155,-0.330187248526,0.0860364984571
1487138125560304952,-0.3056349769,-0.326086129725,0.0861333885397
1487138125567116234,-0.306936494824,-0.321911304553,0.0862247919736
1487138125571383478,-0.308227576394,-0.317662869342,0.0863106999455
1487138125581233589,-0.309508102911,-0.313340927804,0.0863911041765
1487138125588671078,-0.310777955902,-0.308945591025,0.0864659969217
1487138125602795516,-0.312037017122,-0.304476977469,0.0865353709701
1487138125613594083,-0.313285168553,-0.299935212974,0.0865992196453
1487138125624008860,-0.314522292405,-0.295320430756,0.0866575368047
1487138125634552386,-0.315748271116,-0.290632771405,0.0867103168398
1487138125641614251,-0.316962987349,-0.28587238289,0.0867575546765
1487138125649842489,-0.318166323996,-0.281039420554,0.0867992457746
1487138125660293891,-0.319358164176,-0.276134047116,0.0868353861281
1487138125671639749,-0.320538391237,-0.271156432674,0.0868659722652
1487138125679571613,-0.321706888752,-0.266106754698,0.0868910012482
1487138125690755888,-0.322863540521,-0.260985198037,0.0869104706733
1487138125702133747,-0.324008230575,-0.255791954916,0.0869243786713
1487138125711991524,-0.325140843168,-0.250527224936,0.0869327239067
1487138125722261134,-0.326261262785,-0.245191215072,0.0869355055784
1487138125733186618,-0.327369374136,-0.239784139678,0.0869327234192
1487138125745133726,-0.328465062159,-0.234306220483,0.0869243776963
1487138125753561672,-0.32954821202,-0.228757686592,0.0869104692109
1487138125761926993,-0.330618709111,-0.223138774486,0.0868909992982
1487138125771400563,-0.331676439054,-0.217449728023,0.0868659698277
1487138125783520879,-0.332721287695,-0.211690798438,0.0868353832031
1487138125790834827,-0.33375314111,-0.205862244338,0.0867992423621
1487138125799182023,-0.334771885601,-0.199964331711,0.0867575507764
1487138125813396044,-0.335777407698,-0.193997333918,0.0867103124522
1487138125822674864,-0.336769594158,-0.187961531699,0.0866575319294
1487138125831101352,-0.337748331966,-0.181857213166,0.0865992142825
1487138125841190462,-0.338713508333,-0.175684673812,0.0865353651197
1487138125855158108,-0.339665010698,-0.169444216502,0.0864659905835
1487138125861873890,-0.34060272673,-0.16313615148,0.0863910973507
1487138125875267496,-0.34152654432,-0.156760796365,0.086310692632
1487138125881480779,-0.342436351592,-0.150318476151,0.0862247841723
1487138125893425095,-0.343332036893,-0.143809523211,0.0861333802507
1487138125905493494,-0.3442134888,-0.137234277291,0.0860364896802
1487138125914519481,-0.345080596116,-0.130593085516,0.0859341218084
1487138125925234923,-0.345933247872,-0.123886302385,0.0858262865165
1487138125937177573,-0.346771333327,-0.117114289775,0.0857129942201
1487138125945915727,-0.347594741966,-0.110277416937,0.085594255869
1487138125954989797,-0.348403363502,-0.1033760605,0.085470082947
1487138125964942824,-0.349197087876,-0.0964106044684,0.085340487472
1487138125977848931,-0.349975805255,-0.0893814402225,0.0852054819962
1487138125984530504,-0.350739406034,-0.0822889665193,0.0850650796058
1487138125992906742,-0.351487780837,-0.0751335894916,0.0849192939212
1487138126001817021,-0.352220820512,-0.0679157226487,0.0847681390967
1487138126012797213,-0.352938416138,-0.0606357868757,0.0846116298212
1487138126026505235,-0.353640459018,-0.053294210434,0.0844497813173
1487138126030947770,-0.354326840685,-0.0458914289612,0.0842826093419
1487138126043316919,-0.354997452898,-0.0384278854709,0.084110130186
1487138126051780782,-0.355652187645,-0.0309040303532,0.0839323606748
1487138126058661105,-0.356290937138,-0.0233203213739,0.0837493181677
1487138126068707216,-0.35691359382,-0.0156772236752,0.0835610205579
1487138126083941277,-0.35752005036,-0.00797520977551,0.0833674862731
1487138126093135680,-0.358110199653,-0.00021475956929,0.0831687342749
1487138126098977713,-0.358683934824,0.00760363967284,0.0829647840591
1487138126109246115,-0.359241149224,0.0154794933041,0.0827556556558
1487138126120924223,-0.35978173643,0.0234122993015,0.0825413696289
1487138126131930457,-0.360305590249,0.0314015482659,0.0823219470767
1487138126145317105,-0.360812604713,0.0394467234221,0.0820974096316
1487138126149406349,-0.361302674084,0.0475473006187,0.0818677794599
1487138126158480502,-0.361775692849,0.0557027483281,0.0816330792624
1487138126173684813,-0.362231555724,0.0639125276466,0.0813933322737
1487138126179455180,-0.36267015765,0.0721760922943,0.0811485622627
1487138126190996747,-0.363091393798,0.0804928886151,0.0808987935324
1487138126202834438,-0.363495159566,0.0888623555769,0.0806440509199
